key: earth
names:
- world
- earth
kind: world
population: 7713000000
subregions:
-   key: africa
    names:
    - Africa
    kind: continent
    population: 1275920000
    gleam_id: 0
    subregions:
    -   key: angola
        names:
        - Angola
        kind: country
        population: 28813000
        gleam_id: 2
        subregions:
        -   key: menongue
            names:
            - Menongue
            kind: city
            population: 13000
            lat: -14.658
            lon: 17.72
            gleam_id: 0
            iana: SPP
        -   key: huambo
            names:
            - Huambo
            kind: city
            population: 1100000
            lat: -12.809
            lon: 15.76
            gleam_id: 1
            iana: NOV
        -   key: m'banza congo
            names:
            - M'Banza Congo
            kind: city
            lat: -6.27
            lon: 14.247
            gleam_id: 2
            iana: SSY
        -   key: soyo
            names:
            - Soyo
            kind: city
            lat: -6.141
            lon: 12.372
            gleam_id: 3
            iana: SZA
        -   key: lubango
            names:
            - Lubango
            kind: city
            population: 126000
            lat: -14.925
            lon: 13.575
            gleam_id: 4
            iana: SDD
        -   key: kuito
            names:
            - Kuito
            kind: city
            lat: -12.405
            lon: 16.947
            gleam_id: 5
            iana: SVP
        -   key: cabinda
            names:
            - Cabinda
            kind: city
            population: 92000
            lat: -5.597
            lon: 12.188
            gleam_id: 6
            iana: CAB
        -   key: luena
            names:
            - Luena
            kind: city
            population: 21000
            lat: -11.768
            lon: 19.898
            gleam_id: 7
            iana: LUO
        -   key: ondjiva
            names:
            - Ondjiva
            kind: city
            population: 10000
            lat: -17.044
            lon: 15.684
            gleam_id: 8
            iana: VPE
        -   key: malange
            names:
            - Malange
            kind: city
            lat: -9.525
            lon: 16.312
            gleam_id: 9
            iana: MEG
        -   key: saurimo
            names:
            - Saurimo
            kind: city
            population: 41000
            lat: -9.689
            lon: 20.432
            gleam_id: 10
            iana: VHC
        -   key: luanda
            names:
            - Luanda
            kind: city
            population: 5173000
            lat: -8.858
            lon: 13.231
            gleam_id: 11
            iana: LAD
        -   key: catumbela
            names:
            - Catumbela
            kind: city
            population: 17000
            lat: -12.479
            lon: 13.487
            gleam_id: 12
            iana: CBT
        -   key: namibe
            names:
            - Namibe
            kind: city
            population: 133000
            lat: -15.261
            lon: 12.147
            gleam_id: 13
            iana: MSZ
    -   key: sao tome and principe
        names:
        - "S\xE3o Tom\xE9 and Principe"
        kind: country
        population: 200000
        gleam_id: 192
        subregions:
        -   key: sao tome
            names:
            - Sao Tome
            kind: city
            population: 88000
            lat: 0.378
            lon: 6.712
            gleam_id: 551
            iana: TMS
    -   key: gabon
        names:
        - Gabon
        kind: country
        population: 1980000
        gleam_id: 74
        subregions:
        -   key: port gentil
            names:
            - Port Gentil
            kind: city
            population: 117000
            lat: -0.712
            lon: 8.754
            gleam_id: 646
            iana: POG
        -   key: libreville
            names:
            - Libreville
            kind: city
            population: 578000
            lat: 0.459
            lon: 9.412
            gleam_id: 647
            iana: LBV
    -   key: cameroon
        names:
        - Cameroon
        kind: country
        population: 23439000
        gleam_id: 41
        subregions:
        -   key: douala
            names:
            - Douala
            kind: city
            population: 1906000
            lat: 4.006
            lon: 9.719
            gleam_id: 805
            iana: DLA
        -   key: garoua
            names:
            - Garoua
            kind: city
            population: 437000
            lat: 9.336
            lon: 13.37
            gleam_id: 806
            iana: GOU
        -   key: yaounde
            names:
            - Yaounde
            kind: city
            population: 1611000
            lat: 3.723
            lon: 11.553
            gleam_id: 807
            iana: NSI
        -   key: ngaoundere
            names:
            - Ngaoundere
            kind: city
            population: 231000
            lat: 7.357
            lon: 13.559
            gleam_id: 808
            iana: NGE
        -   key: maroua
            names:
            - Maroua
            kind: city
            population: 320000
            lat: 10.451
            lon: 14.257
            gleam_id: 809
            iana: MVR
    -   key: chad
        names:
        - Chad
        kind: country
        population: 14453000
        gleam_id: 202
        subregions:
        -   key: n'djamena
            names:
            - N'djamena
            kind: city
            population: 989000
            lat: 12.134
            lon: 15.034
            gleam_id: 840
            iana: NDJ
    -   key: congo, dem. rep.
        names:
        - Congo, Dem. Rep.
        - congo (kinshasa)
        kind: country
        population: 78736000
        gleam_id: 42
        subregions:
        -   key: kisangani
            names:
            - Kisangani
            kind: city
            population: 578000
            lat: 0.482
            lon: 25.338
            gleam_id: 1328
            iana: FKI
        -   key: bunia
            names:
            - Bunia
            kind: city
            population: 97000
            lat: 1.566
            lon: 30.221
            gleam_id: 1329
            iana: BUX
        -   key: gemena
            names:
            - Gemena
            kind: city
            population: 198000
            lat: 3.235
            lon: 19.771
            gleam_id: 1330
            iana: GMA
        -   key: kinshasa
            names:
            - Kinshasa
            kind: city
            population: 7843000
            lat: -4.386
            lon: 15.445
            gleam_id: 1331
            iana: FIH
        -   key: kongolo
            names:
            - Kongolo
            kind: city
            population: 105000
            lat: -5.394
            lon: 26.99
            gleam_id: 1332
            iana: KOO
        -   key: kindu
            names:
            - Kindu
            kind: city
            population: 263000
            lat: -2.919
            lon: 25.915
            gleam_id: 1333
            iana: KND
        -   key: boende
            names:
            - Boende
            kind: city
            population: 32000
            lat: -0.217
            lon: 20.85
            gleam_id: 1334
            iana: BNB
        -   key: beni
            names:
            - Beni
            kind: city
            population: 333000
            lat: 0.575
            lon: 29.474
            gleam_id: 1335
            iana: BNC
        -   key: lodja
            names:
            - Lodja
            kind: city
            population: 68000
            lat: -3.417
            lon: 23.45
            gleam_id: 1336
            iana: LJA
        -   key: isiro
            names:
            - Isiro
            kind: city
            population: 157000
            lat: 2.828
            lon: 27.588
            gleam_id: 1337
            iana: IRP
        -   key: lubumbashi
            names:
            - Lubumbashi
            kind: city
            population: 1352000
            lat: -11.591
            lon: 27.531
            gleam_id: 1338
            iana: FBM
        -   key: mbuji mayi
            names:
            - Mbuji-Mayi
            kind: city
            population: 1295000
            lat: -6.121
            lon: 23.569
            gleam_id: 1339
            iana: MJM
        -   key: tshikapa
            names:
            - Tshikapa
            kind: city
            population: 267000
            lat: -6.438
            lon: 20.795
            gleam_id: 1340
            iana: TSH
        -   key: kalemie
            names:
            - Kalemie
            kind: city
            population: 206000
            lat: -5.876
            lon: 29.25
            gleam_id: 1341
            iana: FMI
        -   key: mbandaka
            names:
            - Mbandaka
            kind: city
            population: 275000
            lat: 0.023
            lon: 18.289
            gleam_id: 1342
            iana: MDK
        -   key: bukavu
            names:
            - Bukavu
            kind: city
            population: 437000
            lat: -2.309
            lon: 28.809
            gleam_id: 1343
            iana: BKY
        -   key: kananga
            names:
            - Kananga
            kind: city
            population: 765000
            lat: -5.9
            lon: 22.469
            gleam_id: 1344
            iana: KGA
        -   key: goma
            names:
            - Goma
            kind: city
            population: 144000
            lat: -1.671
            lon: 29.239
            gleam_id: 1542
            iana: GOM
    -   key: congo, rep.
        names:
        - Republic of the Congo
        - Congo, Rep.
        - congo (brazzaville)
        kind: country
        population: 5126000
        gleam_id: 43
        subregions:
        -   key: pointe noire
            names:
            - Pointe-Noire
            kind: city
            lat: -4.816
            lon: 11.887
            gleam_id: 1345
            iana: PNR
        -   key: brazzaville
            names:
            - Brazzaville
            kind: city
            population: 1355000
            lat: -4.252
            lon: 15.253
            gleam_id: 1346
            iana: BZV
    -   key: equatorial guinea
        names:
        - Equatorial Guinea
        kind: country
        population: 1221000
        gleam_id: 84
        subregions:
        -   key: malabo
            names:
            - Malabo
            kind: city
            population: 156000
            lat: 3.755
            lon: 8.709
            gleam_id: 2053
            iana: SSG
        -   key: bata
            names:
            - Bata
            kind: city
            population: 173000
            lat: 1.905
            lon: 9.806
            gleam_id: 2054
            iana: BSG
    -   key: central african republic
        names:
        - Central African Republic
        kind: country
        population: 4595000
        gleam_id: 34
        subregions:
        -   key: bangui
            names:
            - Bangui
            kind: city
            population: 832000
            lat: 4.398
            lon: 18.519
            gleam_id: 2811
            iana: BGF
    -   key: algeria
        names:
        - Algeria
        kind: country
        population: 40606000
        gleam_id: 61
        subregions:
        -   key: chlef
            names:
            - Chlef
            kind: city
            population: 449000
            lat: 36.213
            lon: 1.332
            gleam_id: 14
            iana: CFK
        -   key: hassi messaoud
            names:
            - Hassi Messaoud
            kind: city
            population: 18000
            lat: 31.673
            lon: 6.14
            gleam_id: 15
            iana: HME
        -   key: setif
            names:
            - Setif
            kind: city
            population: 275000
            lat: 36.178
            lon: 5.324
            gleam_id: 16
            iana: QSF
        -   key: laghouat
            names:
            - Laghouat
            kind: city
            population: 114000
            lat: 33.764
            lon: 2.928
            gleam_id: 17
            iana: LOO
        -   key: el bayadh
            names:
            - El Bayadh
            kind: city
            population: 67000
            lat: 33.722
            lon: 1.093
            gleam_id: 18
            iana: EBH
        -   key: tebessa
            names:
            - Tebessa
            kind: city
            population: 172000
            lat: 35.432
            lon: 8.121
            gleam_id: 19
            iana: TEE
        -   key: oran
            names:
            - Oran
            kind: city
            population: 798000
            lat: 35.624
            lon: -0.621
            gleam_id: 20
            iana: ORN
        -   key: in salah
            names:
            - In Salah
            kind: city
            lat: 27.251
            lon: 2.512
            gleam_id: 21
            iana: INZ
        -   key: in guezzam
            names:
            - In Guezzam
            kind: city
            gleam_id: 22
            iana: INF
        -   key: biskra
            names:
            - Biskra
            kind: city
            population: 202000
            lat: 34.793
            lon: 5.738
            gleam_id: 23
            iana: BSK
        -   key: constantine
            names:
            - Constantine
            kind: city
            population: 605000
            lat: 36.276
            lon: 6.62
            gleam_id: 24
            iana: CZL
        -   key: ouargla
            names:
            - Ouargla
            kind: city
            population: 176000
            lat: 31.917
            lon: 5.413
            gleam_id: 25
            iana: OGX
        -   key: touggourt
            names:
            - Touggourt
            kind: city
            population: 134000
            lat: 33.068
            lon: 6.089
            gleam_id: 26
            iana: TGR
        -   key: illizi
            names:
            - Illizi
            kind: city
            population: 8000
            lat: 26.723
            lon: 8.623
            gleam_id: 27
            iana: VVZ
        -   key: el golea
            names:
            - El Golea
            kind: city
            population: 32000
            lat: 30.571
            lon: 2.86
            gleam_id: 28
            iana: ELG
        -   key: el oued
            names:
            - El Oued
            kind: city
            population: 177000
            lat: 33.511
            lon: 6.777
            gleam_id: 29
            iana: ELU
        -   key: adrar
            names:
            - Adrar
            kind: city
            population: 57000
            lat: 27.838
            lon: -0.186
            gleam_id: 30
            iana: AZR
        -   key: djanet
            names:
            - Djanet
            kind: city
            population: 1000
            lat: 24.293
            lon: 9.452
            gleam_id: 31
            iana: DJG
        -   key: batna
            names:
            - Batna
            kind: city
            population: 281000
            lat: 35.752
            lon: 6.309
            gleam_id: 32
            iana: BLJ
        -   key: ghardaia
            names:
            - Ghardaia
            kind: city
            population: 125000
            lat: 32.384
            lon: 3.794
            gleam_id: 33
            iana: GHA
        -   key: bordj mokhtar
            names:
            - Bordj Mokhtar
            kind: city
            lat: 21.375
            lon: 0.924
            gleam_id: 34
            iana: BMW
        -   key: tlemcen
            names:
            - Tlemcen
            kind: city
            population: 230000
            lat: 35.017
            lon: -1.45
            gleam_id: 35
            iana: TLM
        -   key: in amenas
            names:
            - In Amenas
            kind: city
            lat: 28.052
            lon: 9.643
            gleam_id: 36
            iana: IAM
        -   key: mecheria
            names:
            - Mecheria
            kind: city
            lat: 33.536
            lon: -0.242
            gleam_id: 37
            iana: MZW
        -   key: tamanrasset
            names:
            - Tamanrasset
            kind: city
            population: 76000
            lat: 22.812
            lon: 5.451
            gleam_id: 38
            iana: TMR
        -   key: timimoun
            names:
            - Timimoun
            kind: city
            population: 49000
            lat: 29.237
            lon: 0.276
            gleam_id: 39
            iana: TMX
        -   key: bejaia
            names:
            - Bejaia
            kind: city
            population: 385000
            lat: 36.712
            lon: 5.07
            gleam_id: 40
            iana: BJA
        -   key: jijel
            names:
            - Jijel
            kind: city
            population: 148000
            lat: 36.795
            lon: 5.874
            gleam_id: 41
            iana: GJL
        -   key: bechar
            names:
            - Bechar
            kind: city
            population: 143000
            lat: 31.646
            lon: -2.27
            gleam_id: 42
            iana: CBH
        -   key: algiers
            names:
            - Algiers
            kind: city
            population: 3354000
            lat: 36.691
            lon: 3.215
            gleam_id: 43
            iana: ALG
        -   key: mascara
            names:
            - Mascara
            kind: city
            population: 108000
            lat: 35.208
            lon: 0.147
            gleam_id: 44
            iana: MUW
        -   key: annaba
            names:
            - Annaba
            kind: city
            population: 504000
            lat: 36.822
            lon: 7.809
            gleam_id: 45
            iana: AAE
        -   key: tindouf
            names:
            - Tindouf
            kind: city
            population: 18000
            lat: 27.7
            lon: -8.167
            gleam_id: 46
            iana: TIN
        -   key: tiaret
            names:
            - Tiaret
            kind: city
            population: 184000
            lat: 35.341
            lon: 1.463
            gleam_id: 47
            iana: TID
    -   key: libya
        names:
        - Libya
        kind: country
        population: 6293000
        gleam_id: 121
        subregions:
        -   key: benghazi
            names:
            - Benghazi
            kind: city
            population: 1180000
            lat: 32.097
            lon: 20.27
            gleam_id: 154
            iana: BEN
        -   key: sirte
            names:
            - Sirte
            kind: city
            population: 128000
            lat: 31.063
            lon: 16.595
            gleam_id: 155
            iana: SRX
        -   key: sebha
            names:
            - Sebha
            kind: city
            lat: 26.987
            lon: 14.472
            gleam_id: 156
            iana: SEB
        -   key: kufra
            names:
            - Kufra
            kind: city
            lat: 24.179
            lon: 23.314
            gleam_id: 157
            iana: AKF
        -   key: karasburg
            names:
            - Karasburg
            kind: city
            population: 6000
            gleam_id: 158
            iana: KAS
        -   key: misurata
            names:
            - Misurata
            kind: city
            gleam_id: 159
            iana: MRA
        -   key: ubari
            names:
            - Ubari
            kind: city
            gleam_id: 160
            iana: QUB
        -   key: ghat
            names:
            - Ghat
            kind: city
            population: 24000
            lat: 25.146
            lon: 10.143
            gleam_id: 161
            iana: GHT
        -   key: ghadames
            names:
            - Ghadames
            kind: city
            lat: 30.152
            lon: 9.715
            gleam_id: 162
            iana: LTD
        -   key: beida
            names:
            - Beida
            kind: city
            lat: 32.789
            lon: 21.964
            gleam_id: 163
            iana: LAQ
        -   key: tobruk
            names:
            - Tobruk
            kind: city
            population: 264000
            lat: 31.861
            lon: 23.907
            gleam_id: 164
            iana: TOB
        -   key: tripoli
            names:
            - Tripoli
            kind: city
            population: 2189000
            lat: 32.664
            lon: 13.159
            gleam_id: 165
            iana: TIP
    -   key: morocco
        names:
        - Morocco
        kind: country
        population: 35277000
        gleam_id: 128
        subregions:
        -   key: agadir
            names:
            - Agadir
            kind: city
            population: 825000
            lat: 30.325
            lon: -9.413
            gleam_id: 810
            iana: AGA
        -   key: tan tan
            names:
            - Tan Tan
            kind: city
            population: 65000
            lat: 28.448
            lon: -11.161
            gleam_id: 811
            iana: TTA
        -   key: laayoune
            names:
            - Laayoune
            kind: city
            population: 196000
            lat: 27.152
            lon: -13.219
            gleam_id: 812
            iana: EUN
        -   key: tetouan
            names:
            - Tetouan
            kind: city
            population: 326000
            lat: 35.594
            lon: -5.32
            gleam_id: 813
            iana: TTU
        -   key: casablanca
            names:
            - Casablanca
            kind: city
            population: 3181000
            lat: 33.368
            lon: -7.59
            gleam_id: 814
            iana: CMN
        -   key: errachidia
            names:
            - Errachidia
            kind: city
            population: 228000
            lat: 31.948
            lon: -4.398
            gleam_id: 815
            iana: ERH
        -   key: essaouira
            names:
            - Essaouira
            kind: city
            population: 71000
            lat: 31.397
            lon: -9.682
            gleam_id: 816
            iana: ESU
        -   key: ouarzazate
            names:
            - Ouarzazate
            kind: city
            lat: 30.939
            lon: -6.909
            gleam_id: 817
            iana: OZZ
        -   key: al hoceima
            names:
            - Al Hoceima
            kind: city
            population: 396000
            lat: 35.177
            lon: -3.84
            gleam_id: 818
            iana: AHU
        -   key: oujda
            names:
            - Oujda
            kind: city
            lat: 34.787
            lon: -1.924
            gleam_id: 819
            iana: OUD
        -   key: rabat
            names:
            - Rabat
            kind: city
            population: 1705000
            lat: 34.051
            lon: -6.752
            gleam_id: 820
            iana: RBA
        -   key: nador
            names:
            - Nador
            kind: city
            population: 129000
            lat: 34.989
            lon: -3.028
            gleam_id: 821
            iana: NDR
        -   key: guelmime
            names:
            - Guelmime
            kind: city
            gleam_id: 822
            iana: GLN
        -   key: tangier
            names:
            - Tangier
            kind: city
            population: 750000
            lat: 35.727
            lon: -5.917
            gleam_id: 823
            iana: TNG
        -   key: marrakech
            names:
            - Marrakech
            kind: city
            population: 872000
            lat: 31.607
            lon: -8.036
            gleam_id: 824
            iana: RAK
        -   key: dakhla
            names:
            - Dakhla
            kind: city
            population: 75000
            lat: 23.718
            lon: -15.932
            gleam_id: 825
            iana: VIL
        -   key: fes
            names:
            - Fes
            kind: city
            population: 1002000
            lat: 33.927
            lon: -4.978
            gleam_id: 826
            iana: FEZ
    -   key: tunisia
        names:
        - Tunisia
        kind: country
        population: 11403000
        gleam_id: 210
        subregions:
        -   key: tunis
            names:
            - Tunis
            kind: city
            population: 2413000
            lat: 36.851
            lon: 10.227
            gleam_id: 1790
            iana: TUN
        -   key: djerba
            names:
            - Djerba
            kind: city
            lat: 33.875
            lon: 10.776
            gleam_id: 1791
            iana: DJE
        -   key: enfidha
            names:
            - Enfidha
            kind: city
            lat: 36.076
            lon: 10.439
            gleam_id: 1792
            iana: NBE
        -   key: sfax
            names:
            - Sfax
            kind: city
            population: 453000
            lat: 34.718
            lon: 10.691
            gleam_id: 1793
            iana: SFA
        -   key: tozeur
            names:
            - Tozeur
            kind: city
            population: 40000
            lat: 33.94
            lon: 8.111
            gleam_id: 1794
            iana: TOE
        -   key: gabes
            names:
            - Gabes
            kind: city
            population: 220000
            lat: 33.877
            lon: 10.103
            gleam_id: 1795
            iana: GAE
    -   key: sudan
        names:
        - Sudan
        kind: country
        population: 39579000
        gleam_id: 181
        subregions:
        -   key: nyala
            names:
            - Nyala
            kind: city
            population: 392000
            lat: 12.054
            lon: 24.956
            gleam_id: 3010
            iana: UYL
        -   key: el obeid
            names:
            - El Obeid
            kind: city
            population: 393000
            lat: 13.153
            lon: 30.233
            gleam_id: 3011
            iana: EBD
        -   key: addeain
            names:
            - Addeain
            kind: city
            gleam_id: 3012
            iana: ADV
        -   key: zalengei
            names:
            - Zalengei
            kind: city
            gleam_id: 3013
            iana: ZLX
        -   key: el fasher
            names:
            - El Fasher
            kind: city
            population: 253000
            lat: 13.615
            lon: 25.325
            gleam_id: 3014
            iana: ELF
        -   key: kassala
            names:
            - Kassala
            kind: city
            population: 401000
            lat: 15.387
            lon: 36.329
            gleam_id: 3015
            iana: KSL
        -   key: port sudan
            names:
            - Port Sudan
            kind: city
            population: 490000
            lat: 19.434
            lon: 37.234
            gleam_id: 3016
            iana: PZU
        -   key: khartoum
            names:
            - Khartoum
            kind: city
            population: 4754000
            lat: 15.59
            lon: 32.553
            gleam_id: 3017
            iana: KRT
        -   key: dongola
            names:
            - Dongola
            kind: city
            population: 26000
            lat: 19.154
            lon: 30.43
            gleam_id: 3018
            iana: DOG
        -   key: geneina
            names:
            - Geneina
            kind: city
            population: 163000
            lat: 13.482
            lon: 22.467
            gleam_id: 3019
            iana: EGN
    -   key: niger
        names:
        - Niger
        kind: country
        population: 20673000
        gleam_id: 152
        subregions:
        -   key: niamey
            names:
            - Niamey
            kind: city
            population: 915000
            lat: 13.482
            lon: 2.184
            gleam_id: 70
            iana: NIM
        -   key: agadez
            names:
            - Agadez
            kind: city
            population: 118000
            lat: 16.966
            lon: 8.0
            gleam_id: 71
            iana: AJY
        -   key: zinder
            names:
            - Zinder
            kind: city
            population: 230000
            lat: 13.779
            lon: 8.984
            gleam_id: 72
            iana: ZND
    -   key: ghana
        names:
        - Ghana
        kind: country
        population: 28207000
        gleam_id: 78
        subregions:
        -   key: sunyani
            names:
            - Sunyani
            kind: city
            population: 70000
            lat: 7.362
            lon: -2.329
            gleam_id: 99
            iana: NYI
        -   key: takoradi
            names:
            - Takoradi
            kind: city
            population: 233000
            lat: 4.896
            lon: -1.775
            gleam_id: 100
            iana: TKD
        -   key: kumasi
            names:
            - Kumasi
            kind: city
            population: 1646000
            lat: 6.715
            lon: -1.591
            gleam_id: 101
            iana: KMS
        -   key: tamale
            names:
            - Tamale
            kind: city
            population: 361000
            lat: 9.557
            lon: -0.863
            gleam_id: 102
            iana: TML
        -   key: accra
            names:
            - Accra
            kind: city
            population: 2121000
            lat: 5.605
            lon: -0.167
            gleam_id: 103
            iana: ACC
    -   key: cape verde
        names:
        - Cape Verde
        - cabo verde
        kind: country
        gleam_id: 47
        subregions:
        -   key: sao vicente island
            names:
            - Sao Vicente Island
            kind: city
            lat: 16.833
            lon: -25.055
            gleam_id: 133
            iana: VXE
        -   key: sao filipe
            names:
            - Sao Filipe
            kind: city
            lat: 14.885
            lon: -24.48
            gleam_id: 134
            iana: SFL
        -   key: sal island
            names:
            - Sal Island
            kind: city
            lat: 16.741
            lon: -22.949
            gleam_id: 135
            iana: SID
        -   key: sao nicolau island
            names:
            - Sao Nicolau Island
            kind: city
            lat: 16.588
            lon: -24.285
            gleam_id: 136
            iana: SNE
        -   key: praia
            names:
            - Praia
            kind: city
            population: 113000
            lat: 14.925
            lon: -23.493
            gleam_id: 137
            iana: RAI
        -   key: boa vista island
            names:
            - Boa Vista Island
            kind: city
            lat: 16.136
            lon: -22.889
            gleam_id: 138
            iana: BVC
    -   key: liberia
        names:
        - Liberia
        kind: country
        population: 4614000
        gleam_id: 120
        subregions:
        -   key: monrovia
            names:
            - Monrovia
            kind: city
            population: 1040999
            lat: 6.234
            lon: -10.362
            gleam_id: 153
            iana: ROB
    -   key: burkina faso
        names:
        - Burkina Faso
        kind: country
        population: 18646000
        gleam_id: 18
        subregions:
        -   key: bobo dioulasso
            names:
            - Bobo Dioulasso
            kind: city
            population: 360000
            lat: 11.16
            lon: -4.331
            gleam_id: 273
            iana: BOY
        -   key: ouagadougou
            names:
            - Ouagadougou
            kind: city
            population: 1149000
            lat: 12.353
            lon: -1.512
            gleam_id: 274
            iana: OUA
    -   key: mauritania
        names:
        - Mauritania
        kind: country
        population: 4301000
        gleam_id: 143
        subregions:
        -   key: zouerate
            names:
            - Zouerate
            kind: city
            population: 56000
            lat: 22.756
            lon: -12.484
            gleam_id: 280
            iana: OUZ
        -   key: nema
            names:
            - Nema
            kind: city
            population: 200000
            lat: 16.622
            lon: -7.317
            gleam_id: 281
            iana: EMN
        -   key: nouadhibou
            names:
            - Nouadhibou
            kind: city
            population: 87000
            lat: 20.933
            lon: -17.03
            gleam_id: 282
            iana: NDB
        -   key: nouakchott
            names:
            - Nouakchott
            kind: city
            population: 742000
            lat: 18.31
            lon: -15.97
            gleam_id: 283
            iana: NKC
    -   key: sierra leone
        names:
        - Sierra Leone
        kind: country
        population: 7396000
        gleam_id: 186
        subregions:
        -   key: freetown
            names:
            - Freetown
            kind: city
            population: 827000
            lat: 8.616
            lon: -13.195
            gleam_id: 490
            iana: FNA
    -   key: guinea
        names:
        - Guinea
        kind: country
        population: 12396000
        gleam_id: 80
        subregions:
        -   key: conakry
            names:
            - Conakry
            kind: city
            population: 1494000
            lat: 9.577
            lon: -13.612
            gleam_id: 495
            iana: CKY
    -   key: benin
        names:
        - Benin
        kind: country
        population: 10872000
        gleam_id: 16
        subregions:
        -   key: cotonou
            names:
            - Cotonou
            kind: city
            population: 762000
            lat: 6.357
            lon: 2.384
            gleam_id: 717
            iana: COO
    -   key: togo
        names:
        - Togo
        kind: country
        population: 7606000
        gleam_id: 203
        subregions:
        -   key: lome
            names:
            - Lome
            kind: city
            population: 1452000
            lat: 6.166
            lon: 1.255
            gleam_id: 723
            iana: LFW
    -   key: nigeria
        names:
        - Nigeria
        kind: country
        population: 185990000
        gleam_id: 154
        subregions:
        -   key: owerri
            names:
            - Owerri
            kind: city
            population: 215000
            lat: 5.427
            lon: 7.206
            gleam_id: 1408
            iana: QOW
        -   key: lagos
            names:
            - Lagos
            kind: city
            population: 9466000
            lat: 6.577
            lon: 3.321
            gleam_id: 1409
            iana: LOS
        -   key: warri
            names:
            - Warri
            kind: city
            population: 830000
            lat: 5.596
            lon: 5.818
            gleam_id: 1410
            iana: QRW
        -   key: gombe
            names:
            - Gombe
            kind: city
            population: 270000
            lat: 10.298
            lon: 10.896
            gleam_id: 1411
            iana: GMO
        -   key: kaduna
            names:
            - Kaduna
            kind: city
            population: 1442000
            lat: 10.696
            lon: 7.32
            gleam_id: 1412
            iana: KAD
        -   key: kano
            names:
            - Kano
            kind: city
            population: 3140000
            lat: 12.048
            lon: 8.525
            gleam_id: 1413
            iana: KAN
        -   key: enugu
            names:
            - Enugu
            kind: city
            population: 689000
            lat: 6.474
            lon: 7.562
            gleam_id: 1414
            iana: ENU
        -   key: benin city
            names:
            - Benin City
            kind: city
            population: 1190000
            lat: 6.317
            lon: 5.6
            gleam_id: 1415
            iana: BNI
        -   key: ilorin
            names:
            - Ilorin
            kind: city
            population: 771000
            lat: 8.44
            lon: 4.494
            gleam_id: 1416
            iana: ILR
        -   key: ibadan
            names:
            - Ibadan
            kind: city
            population: 2628000
            lat: 7.362
            lon: 3.978
            gleam_id: 1417
            iana: IBA
        -   key: katsina
            names:
            - Katsina
            kind: city
            population: 432000
            gleam_id: 1418
            iana: DKA
        -   key: maiduguri
            names:
            - Maiduguri
            kind: city
            population: 896000
            lat: 11.855
            lon: 13.081
            gleam_id: 1419
            iana: MIU
        -   key: jos
            names:
            - Jos
            kind: city
            population: 817000
            lat: 9.64
            lon: 8.869
            gleam_id: 1420
            iana: JOS
        -   key: port harcourt
            names:
            - Port Harcourt
            kind: city
            population: 1020000
            lat: 5.015
            lon: 6.95
            gleam_id: 1421
            iana: PHC
        -   key: sokoto
            names:
            - Sokoto
            kind: city
            population: 732000
            lat: 12.916
            lon: 5.207
            gleam_id: 1422
            iana: SKO
        -   key: yola
            names:
            - Yola
            kind: city
            population: 96000
            lat: 9.258
            lon: 12.43
            gleam_id: 1423
            iana: YOL
        -   key: calabar
            names:
            - Calabar
            kind: city
            population: 462000
            lat: 4.976
            lon: 8.347
            gleam_id: 1424
            iana: CBQ
        -   key: asaba
            names:
            - Asaba
            kind: city
            population: 73000
            lat: 6.204
            lon: 6.665
            gleam_id: 1425
            iana: ABB
        -   key: abuja
            names:
            - Abuja
            kind: city
            population: 1576000
            lat: 9.007
            lon: 7.263
            gleam_id: 1426
            iana: ABV
    -   key: senegal
        names:
        - Senegal
        kind: country
        population: 15412000
        gleam_id: 182
        subregions:
        -   key: ziguinchor
            names:
            - Ziguinchor
            kind: city
            population: 192000
            lat: 12.556
            lon: -16.282
            gleam_id: 1474
            iana: ZIG
        -   key: dakar
            names:
            - Dakar
            kind: city
            population: 2604000
            lat: 14.74
            lon: -17.49
            gleam_id: 1475
            iana: DKR
        -   key: cap skiring
            names:
            - Cap Skiring
            kind: city
            lat: 12.395
            lon: -16.748
            gleam_id: 1476
            iana: CSK
    -   key: gambia
        names:
        - Gambia
        - gambia, the
        kind: country
        population: 2101000
        gleam_id: 82
        subregions:
        -   key: banjul
            names:
            - Banjul
            kind: city
            population: 43000
            lat: 13.338
            lon: -16.652
            gleam_id: 1554
            iana: BJL
    -   key: cote d'ivoire
        names:
        - "C\xF4te d'Ivoire"
        kind: country
        population: 23696000
        gleam_id: 40
        subregions:
        -   key: ouango fitini
            names:
            - Ouango-Fitini
            kind: city
            gleam_id: 2049
            iana: OFI
        -   key: abidjan
            names:
            - Abidjan
            kind: city
            population: 3802000
            lat: 5.261
            lon: -3.926
            gleam_id: 2050
            iana: ABJ
    -   key: guinea bissau
        names:
        - Guinea-Bissau
        kind: country
        population: 1861000
        gleam_id: 83
        subregions:
        -   key: bissau
            names:
            - Bissau
            kind: city
            population: 403000
            lat: 11.895
            lon: -15.654
            gleam_id: 2579
            iana: OXB
    -   key: mali
        names:
        - Mali
        kind: country
        population: 17995000
        gleam_id: 136
        subregions:
        -   key: bamako
            names:
            - Bamako
            kind: city
            population: 1494000
            lat: 12.534
            lon: -7.95
            gleam_id: 2919
            iana: BKO
    -   key: namibia
        names:
        - Namibia
        kind: country
        population: 2480000
        gleam_id: 150
        subregions:
        -   key: ondangwa
            names:
            - Ondangwa
            kind: city
            lat: -17.878
            lon: 15.953
            gleam_id: 74
            iana: OND
        -   key: katima mulilo
            names:
            - Katima Mulilo
            kind: city
            population: 25000
            lat: -17.634
            lon: 24.177
            gleam_id: 75
            iana: MPA
        -   key: windhoek
            names:
            - Windhoek
            kind: city
            population: 268000
            lat: -22.48
            lon: 17.471
            gleam_id: 76
            iana: WDH
        -   key: walvis bay
            names:
            - Walvis Bay
            kind: city
            population: 52000
            lat: -22.98
            lon: 14.645
            gleam_id: 77
            iana: WVB
        -   key: rundu
            names:
            - Rundu
            kind: city
            population: 58000
            lat: -17.956
            lon: 19.719
            gleam_id: 78
            iana: NDU
        -   key: luderitz
            names:
            - Luderitz
            kind: city
            population: 15000
            lat: -26.687
            lon: 15.243
            gleam_id: 79
            iana: LUD
        -   key: oranjemund
            names:
            - Oranjemund
            kind: city
            population: 8000
            lat: -28.585
            lon: 16.447
            gleam_id: 80
            iana: OMD
    -   key: botswana
        names:
        - Botswana
        kind: country
        population: 2250000
        gleam_id: 33
        subregions:
        -   key: maun
            names:
            - Maun
            kind: city
            population: 50000
            lat: -19.973
            lon: 23.431
            gleam_id: 217
            iana: MUB
        -   key: kasane
            names:
            - Kasane
            kind: city
            population: 9000
            lat: -17.833
            lon: 25.162
            gleam_id: 218
            iana: BBK
        -   key: gaborone
            names:
            - Gaborone
            kind: city
            population: 208000
            lat: -24.555
            lon: 25.918
            gleam_id: 219
            iana: GBE
        -   key: francistown
            names:
            - Francistown
            kind: city
            population: 90000
            lat: -21.16
            lon: 27.475
            gleam_id: 220
            iana: FRW
    -   key: south africa
        names:
        - South Africa
        kind: country
        population: 55909000
        gleam_id: 229
        subregions:
        -   key: george
            names:
            - George
            kind: city
            population: 175000
            lat: -34.006
            lon: 22.379
            gleam_id: 625
            iana: GRJ
        -   key: johannesburg
            names:
            - Johannesburg
            kind: city
            population: 3435000
            lat: -26.139
            lon: 28.246
            gleam_id: 626
            iana: JNB
        -   key: richards bay
            names:
            - Richards Bay
            kind: city
            population: 253000
            lat: -28.741
            lon: 32.092
            gleam_id: 627
            iana: RCB
        -   key: nelspruit
            names:
            - Nelspruit
            kind: city
            population: 110000
            lat: -25.383
            lon: 31.106
            gleam_id: 628
            iana: MQP
        -   key: polokwane
            names:
            - Polokwane
            kind: city
            population: 220000
            lat: -23.845
            lon: 29.459
            gleam_id: 629
            iana: PTG
        -   key: upington
            names:
            - Upington
            kind: city
            population: 71000
            lat: -28.399
            lon: 21.26
            gleam_id: 630
            iana: UTN
        -   key: umtata
            names:
            - Umtata
            kind: city
            population: 138000
            lat: -31.546
            lon: 28.673
            gleam_id: 631
            iana: UTT
        -   key: east london
            names:
            - East London
            kind: city
            population: 339000
            lat: -33.036
            lon: 27.826
            gleam_id: 632
            iana: ELS
        -   key: hoedspruit
            names:
            - Hoedspruit
            kind: city
            lat: -24.369
            lon: 31.049
            gleam_id: 633
            iana: HDS
        -   key: pietermaritzburg
            names:
            - Pietermaritzburg
            kind: city
            population: 751000
            lat: -29.649
            lon: 30.399
            gleam_id: 634
            iana: PZB
        -   key: cape town
            names:
            - Cape Town
            kind: city
            population: 3215000
            lat: -33.965
            lon: 18.602
            gleam_id: 635
            iana: CPT
        -   key: sun city
            names:
            - Sun City
            kind: city
            population: 39000
            lat: -25.334
            lon: 27.173
            gleam_id: 636
            iana: NTY
        -   key: bloemfontein
            names:
            - Bloemfontein
            kind: city
            population: 463000
            lat: -29.093
            lon: 26.302
            gleam_id: 637
            iana: BFN
        -   key: phalaborwa
            names:
            - Phalaborwa
            kind: city
            population: 109000
            lat: -23.937
            lon: 31.155
            gleam_id: 638
            iana: PHW
        -   key: durban
            names:
            - Durban
            kind: city
            population: 2729000
            lat: -29.614
            lon: 31.12
            gleam_id: 639
            iana: DUR
        -   key: kimberley
            names:
            - Kimberley
            kind: city
            population: 165000
            lat: -28.803
            lon: 24.765
            gleam_id: 640
            iana: KIM
        -   key: port elizabeth
            names:
            - Port Elizabeth
            kind: city
            population: 1020999
            lat: -33.985
            lon: 25.617
            gleam_id: 641
            iana: PLZ
        -   key: ulundi
            names:
            - Ulundi
            kind: city
            population: 21000
            lat: -28.321
            lon: 31.417
            gleam_id: 642
            iana: ULD
    -   key: lesotho
        names:
        - Lesotho
        kind: country
        population: 2204000
        gleam_id: 124
        subregions:
        -   key: maseru
            names:
            - Maseru
            kind: city
            population: 361000
            lat: -29.462
            lon: 27.552
            gleam_id: 829
            iana: MSU
    -   key: swaziland
        names:
        - Swaziland
        kind: country
        population: 1343000
        gleam_id: 197
        subregions:
        -   key: manzini
            names:
            - Manzini
            kind: city
            population: 111000
            lat: -26.529
            lon: 31.308
            gleam_id: 2580
            iana: MTS
    -   key: mayotte
        names:
        - Mayotte
        kind: country
        gleam_id: 149
        subregions:
        -   key: dzaoudzi
            names:
            - Dzaoudzi
            kind: city
            population: 15000
            lat: -12.805
            lon: 45.281
            gleam_id: 199
            iana: DZA
    -   key: tanzania
        names:
        - Tanzania
        kind: country
        population: 55572000
        gleam_id: 214
        subregions:
        -   key: kigoma
            names:
            - Kigoma
            kind: city
            population: 164000
            lat: -4.886
            lon: 29.671
            gleam_id: 201
            iana: TKQ
        -   key: sumbawanga
            names:
            - Sumbawanga
            kind: city
            population: 89000
            gleam_id: 202
            iana: SUT
        -   key: tanga
            names:
            - Tanga
            kind: city
            population: 225000
            lat: -5.092
            lon: 39.071
            gleam_id: 203
            iana: TGT
        -   key: seronera
            names:
            - Seronera
            kind: city
            lat: -2.458
            lon: 34.822
            gleam_id: 204
            iana: SEU
        -   key: kilimanjaro
            names:
            - Kilimanjaro
            kind: city
            lat: -3.429
            lon: 37.075
            gleam_id: 205
            iana: JRO
        -   key: zanzibar
            names:
            - Zanzibar
            kind: city
            population: 404000
            lat: -6.222
            lon: 39.225
            gleam_id: 206
            iana: ZNZ
        -   key: iringa
            names:
            - Iringa
            kind: city
            population: 112000
            lat: -7.669
            lon: 35.752
            gleam_id: 207
            iana: IRI
        -   key: songea
            names:
            - Songea
            kind: city
            population: 126000
            lat: -10.683
            lon: 35.583
            gleam_id: 208
            iana: SGX
        -   key: tabora
            names:
            - Tabora
            kind: city
            population: 146000
            lat: -5.076
            lon: 32.833
            gleam_id: 209
            iana: TBO
        -   key: mtwara
            names:
            - Mtwara
            kind: city
            population: 97000
            lat: -10.339
            lon: 40.182
            gleam_id: 210
            iana: MYW
        -   key: mwanza
            names:
            - Mwanza
            kind: city
            population: 494000
            lat: -2.444
            lon: 32.933
            gleam_id: 211
            iana: MWZ
        -   key: bukoba
            names:
            - Bukoba
            kind: city
            population: 101000
            lat: -1.332
            lon: 31.821
            gleam_id: 212
            iana: BKZ
        -   key: lake manyara
            names:
            - Lake Manyara
            kind: city
            lat: -3.376
            lon: 35.818
            gleam_id: 213
            iana: LKY
        -   key: mbeya
            names:
            - Mbeya
            kind: city
            population: 292000
            lat: -8.92
            lon: 33.274
            gleam_id: 214
            iana: MBI
        -   key: arusha
            names:
            - Arusha
            kind: city
            population: 341000
            lat: -3.368
            lon: 36.633
            gleam_id: 215
            iana: ARK
        -   key: dar es salaam
            names:
            - Dar Es Salaam
            kind: city
            population: 2930000
            lat: -6.878
            lon: 39.203
            gleam_id: 216
            iana: DAR
    -   key: ethiopia
        names:
        - Ethiopia
        kind: country
        population: 102403000
        gleam_id: 67
        subregions:
        -   key: mekele
            names:
            - Mekele
            kind: city
            population: 96000
            lat: 13.467
            lon: 39.534
            gleam_id: 226
            iana: MQX
        -   key: gambela
            names:
            - Gambela
            kind: city
            population: 42000
            lat: 8.129
            lon: 34.563
            gleam_id: 227
            iana: GMB
        -   key: addis ababa
            names:
            - Addis Ababa
            kind: city
            population: 3100000
            lat: 8.978
            lon: 38.799
            gleam_id: 228
            iana: ADD
        -   key: dire dawa
            names:
            - Dire Dawa
            kind: city
            population: 252000
            lat: 9.625
            lon: 41.854
            gleam_id: 229
            iana: DIR
        -   key: jimma
            names:
            - Jimma
            kind: city
            population: 128000
            lat: 7.666
            lon: 36.817
            gleam_id: 230
            iana: JIM
        -   key: jijiga
            names:
            - Jijiga
            kind: city
            population: 57000
            lat: 9.332
            lon: 42.912
            gleam_id: 231
            iana: JIJ
        -   key: humera
            names:
            - Humera
            kind: city
            lat: 14.25
            lon: 36.583
            gleam_id: 232
            iana: HUE
        -   key: semera
            names:
            - Semera
            kind: city
            gleam_id: 233
            iana: SZE
        -   key: inda selassie
            names:
            - Inda Selassie
            kind: city
            gleam_id: 234
            iana: SHC
        -   key: axum
            names:
            - Axum
            kind: city
            population: 41000
            lat: 14.147
            lon: 38.773
            gleam_id: 235
            iana: AXU
        -   key: bahar dar
            names:
            - Bahar Dar
            kind: city
            lat: 11.608
            lon: 37.322
            gleam_id: 236
            iana: BJR
        -   key: arba minch
            names:
            - Arba Minch
            kind: city
            population: 70000
            lat: 6.039
            lon: 37.59
            gleam_id: 237
            iana: AMH
        -   key: gonder
            names:
            - Gonder
            kind: city
            population: 156000
            lat: 12.52
            lon: 37.434
            gleam_id: 238
            iana: GDQ
        -   key: gode
            names:
            - Gode
            kind: city
            population: 75000
            lat: 5.935
            lon: 43.579
            gleam_id: 239
            iana: GDE
        -   key: kebri dehar
            names:
            - Kebri Dehar
            kind: city
            lat: 6.734
            lon: 44.253
            gleam_id: 240
            iana: ABK
        -   key: asosa
            names:
            - Asosa
            kind: city
            population: 31000
            lat: 10.019
            lon: 34.586
            gleam_id: 241
            iana: ASO
        -   key: lalibela
            names:
            - Lalibela
            kind: city
            lat: 11.975
            lon: 38.98
            gleam_id: 242
            iana: LLI
    -   key: djibouti
        names:
        - Djibouti
        kind: country
        population: 942000
        gleam_id: 57
        subregions:
        -   key: djibouti city
            names:
            - Djibouti
            kind: city
            gleam_id: 494
            iana: JIB
    -   key: seychelles
        names:
        - Seychelles
        kind: country
        population: 95000
        gleam_id: 199
        subregions:
        -   key: mahe island
            names:
            - Mahe Island
            kind: city
            lat: -4.674
            lon: 55.522
            gleam_id: 552
            iana: SEZ
    -   key: burundi
        names:
        - Burundi
        kind: country
        population: 10524000
        gleam_id: 14
        subregions:
        -   key: bujumbura
            names:
            - Bujumbura
            kind: city
            population: 332000
            lat: -3.324
            lon: 29.319
            gleam_id: 900
            iana: BJM
    -   key: zimbabwe
        names:
        - Zimbabwe
        kind: country
        population: 16149999
        gleam_id: 231
        subregions:
        -   key: bulawayo
            names:
            - Bulawayo
            kind: city
            population: 699000
            lat: -20.017
            lon: 28.618
            gleam_id: 958
            iana: BUQ
        -   key: victoria falls
            names:
            - Victoria Falls
            kind: city
            population: 36000
            lat: -18.096
            lon: 25.839
            gleam_id: 959
            iana: VFA
        -   key: harare
            names:
            - Harare
            kind: city
            population: 1572000
            lat: -17.932
            lon: 31.093
            gleam_id: 960
            iana: HRE
    -   key: mozambique
        names:
        - Mozambique
        kind: country
        population: 28829000
        gleam_id: 142
        subregions:
        -   key: beira
            names:
            - Beira
            kind: city
            population: 531000
            lat: -19.796
            lon: 34.908
            gleam_id: 961
            iana: BEW
        -   key: cuamba
            names:
            - Cuamba
            kind: city
            population: 73000
            lat: -14.815
            lon: 36.53
            gleam_id: 962
            iana: FXO
        -   key: nampula
            names:
            - Nampula
            kind: city
            population: 389000
            lat: -15.106
            lon: 39.282
            gleam_id: 963
            iana: APL
        -   key: pemba
            names:
            - Pemba
            kind: city
            population: 111000
            lat: -12.992
            lon: 40.524
            gleam_id: 964
            iana: POL
        -   key: nacala
            names:
            - Nacala
            kind: city
            population: 225000
            lat: -14.488
            lon: 40.712
            gleam_id: 965
            iana: MNC
        -   key: maputo
            names:
            - Maputo
            kind: city
            population: 1446000
            lat: -25.921
            lon: 32.573
            gleam_id: 966
            iana: MPM
        -   key: tete
            names:
            - Tete
            kind: city
            population: 129000
            lat: -16.105
            lon: 33.64
            gleam_id: 967
            iana: TET
        -   key: inhambane
            names:
            - Inhambane
            kind: city
            population: 116000
            lat: -23.876
            lon: 35.409
            gleam_id: 968
            iana: INH
        -   key: chimoio
            names:
            - Chimoio
            kind: city
            population: 257000
            lat: -19.151
            lon: 33.429
            gleam_id: 969
            iana: VPY
        -   key: lichinga
            names:
            - Lichinga
            kind: city
            population: 110000
            lat: -13.274
            lon: 35.266
            gleam_id: 970
            iana: VXC
        -   key: mocimboa da praia
            names:
            - Mocimboa Da Praia
            kind: city
            lat: -11.362
            lon: 40.355
            gleam_id: 971
            iana: MZB
        -   key: quelimane
            names:
            - Quelimane
            kind: city
            population: 189000
            lat: -17.855
            lon: 36.869
            gleam_id: 972
            iana: UEL
        -   key: vilankulos
            names:
            - Vilankulos
            kind: city
            lat: -22.018
            lon: 35.313
            gleam_id: 973
            iana: VNX
    -   key: mauritius
        names:
        - Mauritius
        kind: country
        population: 1263000
        gleam_id: 146
        subregions:
        -   key: rodrigues island
            names:
            - Rodrigues Island
            kind: city
            lat: -19.758
            lon: 63.361
            gleam_id: 1197
            iana: RRG
        -   key: mauritius city
            names:
            - Mauritius
            kind: city
            gleam_id: 1196
            iana: MRU
    -   key: reunion
        names:
        - Reunion
        kind: country
        gleam_id: 176
        subregions:
        -   key: st denis
            names:
            - St-denis
            kind: city
            lat: -20.887
            lon: 55.51
            gleam_id: 1232
            iana: RUN
    -   key: comoros
        names:
        - Comoros
        kind: country
        population: 796000
        gleam_id: 46
        subregions:
        -   key: anjouan
            names:
            - Anjouan
            kind: city
            lat: -12.132
            lon: 44.43
            gleam_id: 1359
            iana: AJN
        -   key: moroni
            names:
            - Moroni
            kind: city
            population: 129000
            lat: -11.534
            lon: 43.272
            gleam_id: 1360
            iana: HAH
    -   key: madagascar
        names:
        - Madagascar
        kind: country
        population: 24895000
        gleam_id: 131
        subregions:
        -   key: ranohira
            names:
            - Ranohira
            kind: city
            gleam_id: 1443
            iana: RLR
        -   key: morondava
            names:
            - Morondava
            kind: city
            population: 37000
            lat: -20.285
            lon: 44.318
            gleam_id: 1444
            iana: MOQ
        -   key: nosy be
            names:
            - Nosy-Be
            kind: city
            lat: -13.312
            lon: 48.315
            gleam_id: 1445
            iana: NOS
        -   key: antsiranana
            names:
            - Antsiranana
            kind: city
            population: 83000
            lat: -12.349
            lon: 49.292
            gleam_id: 1446
            iana: DIE
        -   key: maroantsetra
            names:
            - Maroantsetra
            kind: city
            population: 38000
            lat: -15.437
            lon: 49.688
            gleam_id: 1447
            iana: WMN
        -   key: sambava
            names:
            - Sambava
            kind: city
            population: 43000
            lat: -14.279
            lon: 50.175
            gleam_id: 1448
            iana: SVB
        -   key: antananarivo
            names:
            - Antananarivo
            kind: city
            population: 1697000
            lat: -18.797
            lon: 47.479
            gleam_id: 1449
            iana: TNR
        -   key: mahajanga
            names:
            - Mahajanga
            kind: city
            population: 155000
            lat: -15.667
            lon: 46.351
            gleam_id: 1450
            iana: MJN
        -   key: belo tsiribihina
            names:
            - Belo Tsiribihina
            kind: city
            lat: -19.687
            lon: 44.542
            gleam_id: 1451
            iana: BMD
        -   key: toliara
            names:
            - Toliara
            kind: city
            population: 115000
            lat: -23.383
            lon: 43.729
            gleam_id: 1452
            iana: TLE
        -   key: antalaha
            names:
            - Antalaha
            kind: city
            population: 47000
            lat: -14.999
            lon: 50.32
            gleam_id: 1453
            iana: ANM
        -   key: toamasina
            names:
            - Toamasina
            kind: city
            population: 210000
            lat: -18.11
            lon: 49.393
            gleam_id: 1454
            iana: TMM
        -   key: mananara avaratra
            names:
            - Mananara Avaratra
            kind: city
            lat: -16.164
            lon: 49.774
            gleam_id: 1455
            iana: WMR
        -   key: tolanaro
            names:
            - Tolanaro
            kind: city
            population: 17000
            lat: -25.038
            lon: 46.956
            gleam_id: 1456
            iana: FTU
        -   key: ste marie
            names:
            - Ste Marie
            kind: city
            lat: -17.094
            lon: 49.816
            gleam_id: 1457
            iana: SMS
        -   key: andavadoaka
            names:
            - Andavadoaka
            kind: city
            gleam_id: 1458
            iana: DVD
    -   key: rwanda
        names:
        - Rwanda
        kind: country
        population: 11918000
        gleam_id: 179
        subregions:
        -   key: kigali
            names:
            - Kigali
            kind: city
            population: 860000
            lat: -1.969
            lon: 30.14
            gleam_id: 1543
            iana: KGL
        -   key: cyangugu
            names:
            - Cyangugu
            kind: city
            population: 20000
            lat: -2.462
            lon: 28.908
            gleam_id: 1544
            iana: KME
    -   key: zambia
        names:
        - Zambia
        kind: country
        population: 16591000
        gleam_id: 230
        subregions:
        -   key: ndola
            names:
            - Ndola
            kind: city
            population: 396000
            lat: -12.998
            lon: 28.665
            gleam_id: 1545
            iana: NLA
        -   key: mongu
            names:
            - Mongu
            kind: city
            population: 53000
            lat: -15.255
            lon: 23.162
            gleam_id: 1546
            iana: MNR
        -   key: mansa
            names:
            - Mansa
            kind: city
            population: 42000
            lat: -11.137
            lon: 28.873
            gleam_id: 1547
            iana: MNS
        -   key: kasama
            names:
            - Kasama
            kind: city
            population: 200000
            lat: -10.217
            lon: 31.133
            gleam_id: 1548
            iana: KAA
        -   key: lusaka
            names:
            - Lusaka
            kind: city
            population: 1328000
            lat: -15.331
            lon: 28.453
            gleam_id: 1549
            iana: LUN
        -   key: mfuwe
            names:
            - Mfuwe
            kind: city
            lat: -13.259
            lon: 31.937
            gleam_id: 1550
            iana: MFU
        -   key: livingstone
            names:
            - Livingstone
            kind: city
            population: 165000
            lat: -17.822
            lon: 25.823
            gleam_id: 1551
            iana: LVI
        -   key: solwezi
            names:
            - Solwezi
            kind: city
            population: 65000
            gleam_id: 1552
            iana: SLI
        -   key: chipata
            names:
            - Chipata
            kind: city
            population: 86000
            lat: -13.558
            lon: 32.587
            gleam_id: 1553
            iana: CIP
    -   key: kenya
        names:
        - Kenya
        kind: country
        population: 48462000
        gleam_id: 110
        subregions:
        -   key: nanyuki
            names:
            - Nanyuki
            kind: city
            population: 36000
            lat: -0.062
            lon: 37.041
            gleam_id: 1723
            iana: NYK
        -   key: eldoret
            names:
            - Eldoret
            kind: city
            population: 353000
            lat: 0.404
            lon: 35.239
            gleam_id: 1724
            iana: EDL
        -   key: lodwar
            names:
            - Lodwar
            kind: city
            population: 20000
            lat: 3.122
            lon: 35.609
            gleam_id: 1725
            iana: LOK
        -   key: wajir
            names:
            - Wajir
            kind: city
            population: 46000
            lat: 1.733
            lon: 40.092
            gleam_id: 1726
            iana: WJR
        -   key: meru
            names:
            - Meru
            kind: city
            population: 47000
            lat: 0.165
            lon: 38.195
            gleam_id: 1727
            iana: JJM
        -   key: masai mara
            names:
            - Masai Mara
            kind: city
            lat: -1.406
            lon: 35.008
            gleam_id: 1728
            iana: MRE
        -   key: lokichogio
            names:
            - Lokichogio
            kind: city
            lat: 4.204
            lon: 34.348
            gleam_id: 1729
            iana: LKG
        -   key: malindi
            names:
            - Malindi
            kind: city
            population: 94000
            lat: -3.229
            lon: 40.102
            gleam_id: 1730
            iana: MYD
        -   key: samburu
            names:
            - Samburu
            kind: city
            lat: 0.531
            lon: 37.534
            gleam_id: 1731
            iana: UAS
        -   key: lamu
            names:
            - Lamu
            kind: city
            population: 25000
            lat: -2.252
            lon: 40.913
            gleam_id: 1732
            iana: LAU
        -   key: kitale
            names:
            - Kitale
            kind: city
            population: 150000
            lat: 0.972
            lon: 34.959
            gleam_id: 1733
            iana: KTL
        -   key: amboseli
            names:
            - Amboseli
            kind: city
            lat: -2.645
            lon: 37.253
            gleam_id: 1734
            iana: ASV
        -   key: nakuru
            names:
            - Nakuru
            kind: city
            population: 365000
            gleam_id: 1735
            iana: NUU
        -   key: kisumu
            names:
            - Kisumu
            kind: city
            population: 396000
            lat: -0.086
            lon: 34.729
            gleam_id: 1736
            iana: KIS
        -   key: mombasa
            names:
            - Mombasa
            kind: city
            population: 882000
            lat: -4.035
            lon: 39.594
            gleam_id: 1737
            iana: MBA
        -   key: nairobi
            names:
            - Nairobi
            kind: city
            population: 3010000
            lat: -1.319
            lon: 36.928
            gleam_id: 1738
            iana: NBO
    -   key: south sudan
        names:
        - South Sudan
        kind: country
        population: 12580000
        gleam_id: 191
        subregions:
        -   key: juba
            names:
            - Juba
            kind: city
            population: 112000
            lat: 4.872
            lon: 31.601
            gleam_id: 2538
            iana: JUB
        -   key: rumbek
            names:
            - Rumbek
            kind: city
            population: 32000
            lat: 6.825
            lon: 29.669
            gleam_id: 2539
            iana: RBX
    -   key: somalia
        names:
        - Somalia
        kind: country
        population: 14318000
        gleam_id: 188
        subregions:
        -   key: berbera
            names:
            - Berbera
            kind: city
            population: 242000
            lat: 10.389
            lon: 44.941
            gleam_id: 2829
            iana: BBO
        -   key: bosaso
            names:
            - Bosaso
            kind: city
            population: 74000
            lat: 11.275
            lon: 49.149
            gleam_id: 2830
            iana: BSA
        -   key: mogadishu
            names:
            - Mogadishu
            kind: city
            population: 1100000
            lat: 2.014
            lon: 45.305
            gleam_id: 2831
            iana: MGQ
        -   key: galcaio
            names:
            - Galcaio
            kind: city
            lat: 6.781
            lon: 47.455
            gleam_id: 2832
            iana: GLK
        -   key: hargeisa
            names:
            - Hargeisa
            kind: city
            lat: 9.518
            lon: 44.089
            gleam_id: 2833
            iana: HGA
        -   key: baidoa
            names:
            - Baidoa
            kind: city
            population: 130000
            lat: 3.102
            lon: 43.629
            gleam_id: 2834
            iana: BIB
        -   key: kisimayu
            names:
            - Kisimayu
            kind: city
            lat: -0.377
            lon: 42.459
            gleam_id: 2835
            iana: KMU
    -   key: eritrea
        names:
        - Eritrea
        kind: country
        population: 4475000
        gleam_id: 64
        subregions:
        -   key: asmara
            names:
            - Asmara
            kind: city
            population: 621000
            lat: 15.292
            lon: 38.911
            gleam_id: 2848
            iana: ASM
        -   key: massawa
            names:
            - Massawa
            kind: city
            population: 143000
            lat: 15.67
            lon: 39.37
            gleam_id: 2849
            iana: MSW
    -   key: malawi
        names:
        - Malawi
        kind: country
        population: 18092000
        gleam_id: 147
        subregions:
        -   key: likoma island
            names:
            - Likoma Island
            kind: city
            lat: -12.076
            lon: 34.737
            gleam_id: 2869
            iana: LIX
        -   key: blantyre
            names:
            - Blantyre
            kind: city
            population: 585000
            lat: -15.679
            lon: 34.974
            gleam_id: 2870
            iana: BLZ
        -   key: chelinda
            names:
            - Chelinda
            kind: city
            gleam_id: 2871
            iana: CEH
        -   key: lilongwe
            names:
            - Lilongwe
            kind: city
            population: 647000
            lat: -13.789
            lon: 33.781
            gleam_id: 2872
            iana: LLW
    -   key: uganda
        names:
        - Uganda
        kind: country
        population: 41488000
        gleam_id: 215
        subregions:
        -   key: entebbe
            names:
            - Entebbe
            kind: city
            population: 175000
            lat: 0.042
            lon: 32.444
            gleam_id: 3163
            iana: EBB
        -   key: kasese
            names:
            - Kasese
            kind: city
            population: 67000
            lat: 0.183
            lon: 30.1
            gleam_id: 3164
            iana: KSE
        -   key: arua
            names:
            - Arua
            kind: city
            population: 250000
            lat: 3.05
            lon: 30.917
            gleam_id: 3165
            iana: RUA
        -   key: pakuba
            names:
            - Pakuba
            kind: city
            gleam_id: 3166
            iana: PAF
-   key: asia
    names:
    - Asia
    kind: continent
    population: 4560667000
    gleam_id: 1
    subregions:
    -   key: bangladesh
        names:
        - Bangladesh
        kind: country
        population: 162952000
        gleam_id: 19
        subregions:
        -   key: saidpur
            names:
            - Saidpur
            kind: city
            population: 232000
            lat: 25.759
            lon: 88.909
            gleam_id: 61
            iana: SPD
        -   key: sylhet
            names:
            - Sylhet
            kind: city
            population: 237000
            lat: 24.963
            lon: 91.867
            gleam_id: 62
            iana: ZYL
        -   key: rajshahi
            names:
            - Rajshahi
            kind: city
            population: 810000
            lat: 24.437
            lon: 88.617
            gleam_id: 63
            iana: RJH
        -   key: cox's bazar
            names:
            - Cox's Bazar
            kind: city
            population: 254000
            lat: 21.452
            lon: 91.964
            gleam_id: 64
            iana: CXB
        -   key: ishurdi
            names:
            - Ishurdi
            kind: city
            population: 82000
            lat: 24.153
            lon: 89.049
            gleam_id: 65
            iana: IRD
        -   key: barisal
            names:
            - Barisal
            kind: city
            population: 202000
            lat: 22.801
            lon: 90.301
            gleam_id: 66
            iana: BZL
        -   key: jessore
            names:
            - Jessore
            kind: city
            population: 244000
            lat: 23.184
            lon: 89.161
            gleam_id: 67
            iana: JSR
        -   key: chittagong
            names:
            - Chittagong
            kind: city
            population: 4529000
            lat: 22.25
            lon: 91.813
            gleam_id: 68
            iana: CGP
        -   key: dhaka
            names:
            - Dhaka
            kind: city
            population: 12797000
            lat: 23.843
            lon: 90.398
            gleam_id: 69
            iana: DAC
    -   key: pakistan
        names:
        - Pakistan
        kind: country
        population: 193203000
        gleam_id: 163
        subregions:
        -   key: karachi
            names:
            - Karachi
            kind: city
            population: 12130000
            lat: 24.907
            lon: 67.161
            gleam_id: 105
            iana: KHI
        -   key: gilgit
            names:
            - Gilgit
            kind: city
            population: 217000
            lat: 35.919
            lon: 74.334
            gleam_id: 106
            iana: GIL
        -   key: dalbandin
            names:
            - Dalbandin
            kind: city
            lat: 28.878
            lon: 64.4
            gleam_id: 107
            iana: DBA
        -   key: islamabad
            names:
            - Islamabad
            kind: city
            population: 780000
            lat: 33.561
            lon: 72.852
            gleam_id: 108
            iana: ISB
        -   key: turbat
            names:
            - Turbat
            kind: city
            population: 148000
            lat: 25.986
            lon: 63.03
            gleam_id: 109
            iana: TUK
        -   key: sukkur
            names:
            - Sukkur
            kind: city
            population: 418000
            lat: 27.722
            lon: 68.792
            gleam_id: 110
            iana: SKZ
        -   key: chitral
            names:
            - Chitral
            kind: city
            lat: 35.887
            lon: 71.801
            gleam_id: 111
            iana: CJL
        -   key: sui
            names:
            - Sui
            kind: city
            lat: 28.645
            lon: 69.177
            gleam_id: 112
            iana: SUL
        -   key: panjgur
            names:
            - Panjgur
            kind: city
            lat: 26.955
            lon: 64.132
            gleam_id: 113
            iana: PJG
        -   key: rahim yar khan
            names:
            - Rahim Yar Khan
            kind: city
            population: 789000
            lat: 28.384
            lon: 70.28
            gleam_id: 114
            iana: RYK
        -   key: lahore
            names:
            - Lahore
            kind: city
            population: 6577000
            lat: 31.522
            lon: 74.404
            gleam_id: 115
            iana: LHE
        -   key: dera ismail khan
            names:
            - Dera Ismail Khan
            kind: city
            population: 102000
            lat: 31.909
            lon: 70.897
            gleam_id: 116
            iana: DSK
        -   key: saidu sharif
            names:
            - Saidu Sharif
            kind: city
            population: 1860000
            lat: 34.814
            lon: 72.353
            gleam_id: 117
            iana: SDT
        -   key: faisalabad
            names:
            - Faisalabad
            kind: city
            population: 2617000
            lat: 31.365
            lon: 72.995
            gleam_id: 118
            iana: LYP
        -   key: peshawar
            names:
            - Peshawar
            kind: city
            population: 1303000
            lat: 33.994
            lon: 71.515
            gleam_id: 119
            iana: PEW
        -   key: kadanwari
            names:
            - Kadanwari
            kind: city
            lat: 27.167
            lon: 69.317
            gleam_id: 120
            iana: KCF
        -   key: quetta
            names:
            - Quetta
            kind: city
            population: 768000
            lat: 30.251
            lon: 66.938
            gleam_id: 121
            iana: UET
        -   key: mohenjodaro
            names:
            - Mohenjodaro
            kind: city
            lat: 27.335
            lon: 68.143
            gleam_id: 122
            iana: MJD
        -   key: hyderabad (pk)
            names:
            - Hyderabad (PK)
            kind: city
            lat: 25.318
            lon: 68.366
            gleam_id: 123
            iana: HDD
        -   key: zhob
            names:
            - Zhob
            kind: city
            population: 88000
            lat: 31.358
            lon: 69.464
            gleam_id: 124
            iana: PZH
        -   key: sialkot
            names:
            - Sialkot
            kind: city
            population: 477000
            lat: 32.536
            lon: 74.364
            gleam_id: 125
            iana: SKT
        -   key: dadu
            names:
            - Dadu
            kind: city
            population: 140000
            gleam_id: 126
            iana: DDU
        -   key: gwadar
            names:
            - Gwadar
            kind: city
            population: 52000
            lat: 25.233
            lon: 62.329
            gleam_id: 127
            iana: GWD
        -   key: skardu
            names:
            - Skardu
            kind: city
            lat: 35.335
            lon: 75.536
            gleam_id: 128
            iana: KDU
        -   key: dera ghazi khan
            names:
            - Dera Ghazi Khan
            kind: city
            population: 236000
            lat: 29.961
            lon: 70.486
            gleam_id: 129
            iana: DEA
        -   key: bahawalpur
            names:
            - Bahawalpur
            kind: city
            population: 553000
            lat: 29.348
            lon: 71.718
            gleam_id: 130
            iana: BHV
        -   key: multan
            names:
            - Multan
            kind: city
            population: 1522000
            lat: 30.203
            lon: 71.419
            gleam_id: 131
            iana: MUX
        -   key: nawabshah
            names:
            - Nawabshah
            kind: city
            population: 230000
            lat: 26.219
            lon: 68.39
            gleam_id: 132
            iana: WNS
    -   key: nepal
        names:
        - Nepal
        kind: country
        population: 28983000
        gleam_id: 159
        subregions:
        -   key: bhairawa
            names:
            - Bhairawa
            kind: city
            lat: 27.506
            lon: 83.416
            gleam_id: 553
            iana: BWA
        -   key: jomsom
            names:
            - Jomsom
            kind: city
            lat: 28.78
            lon: 83.723
            gleam_id: 554
            iana: JMO
        -   key: dolpa
            names:
            - Dolpa
            kind: city
            lat: 28.986
            lon: 82.819
            gleam_id: 555
            iana: DOP
        -   key: janakpur
            names:
            - Janakpur
            kind: city
            population: 94000
            lat: 26.709
            lon: 85.922
            gleam_id: 556
            iana: JKR
        -   key: simikot
            names:
            - Simikot
            kind: city
            lat: 29.971
            lon: 81.819
            gleam_id: 557
            iana: IMK
        -   key: dhangarhi
            names:
            - Dhangarhi
            kind: city
            population: 92000
            lat: 28.753
            lon: 80.582
            gleam_id: 558
            iana: DHI
        -   key: simara
            names:
            - Simara
            kind: city
            lat: 27.16
            lon: 84.98
            gleam_id: 559
            iana: SIF
        -   key: lukla
            names:
            - Lukla
            kind: city
            lat: 27.687
            lon: 86.73
            gleam_id: 560
            iana: LUA
        -   key: nepalganj
            names:
            - Nepalganj
            kind: city
            population: 64000
            lat: 28.104
            lon: 81.667
            gleam_id: 561
            iana: KEP
        -   key: surkhet
            names:
            - Surkhet
            kind: city
            lat: 28.586
            lon: 81.636
            gleam_id: 562
            iana: SKH
        -   key: jumla
            names:
            - Jumla
            kind: city
            population: 9000
            lat: 29.274
            lon: 82.193
            gleam_id: 563
            iana: JUM
        -   key: tumlingtar
            names:
            - Tumlingtar
            kind: city
            lat: 27.315
            lon: 87.193
            gleam_id: 564
            iana: TMI
        -   key: bharatpur
            names:
            - Bharatpur
            kind: city
            population: 229000
            lat: 27.678
            lon: 84.429
            gleam_id: 565
            iana: BHR
        -   key: kathmandu
            names:
            - Kathmandu
            kind: city
            population: 895000
            lat: 27.697
            lon: 85.359
            gleam_id: 566
            iana: KTM
        -   key: biratnagar
            names:
            - Biratnagar
            kind: city
            population: 182000
            lat: 26.482
            lon: 87.264
            gleam_id: 567
            iana: BIR
        -   key: bhadrapur
            names:
            - Bhadrapur
            kind: city
            population: 20000
            lat: 26.571
            lon: 88.08
            gleam_id: 568
            iana: BDP
        -   key: pokhara
            names:
            - Pokhara
            kind: city
            population: 200000
            lat: 28.201
            lon: 83.982
            gleam_id: 569
            iana: PKR
    -   key: sri lanka
        names:
        - Sri Lanka
        kind: country
        population: 21203000
        gleam_id: 123
        subregions:
        -   key: batticaloa
            names:
            - Batticaloa
            kind: city
            population: 129000
            lat: 7.706
            lon: 81.679
            gleam_id: 754
            iana: BTC
        -   key: dickwella
            names:
            - Dickwella
            kind: city
            gleam_id: 755
            iana: DIW
        -   key: kandy
            names:
            - Kandy
            kind: city
            population: 112000
            gleam_id: 756
            iana: KDZ
        -   key: trincomalee
            names:
            - Trincomalee
            kind: city
            population: 108000
            gleam_id: 757
            iana: THW
        -   key: colombo
            names:
            - Colombo
            kind: city
            population: 217000
            lat: 7.181
            lon: 79.884
            gleam_id: 758
            iana: CMB
    -   key: afghanistan
        names:
        - Afghanistan
        kind: country
        population: 34656000
        gleam_id: 1
        subregions:
        -   key: chaghcharan
            names:
            - Chaghcharan
            kind: city
            lat: 34.533
            lon: 65.267
            gleam_id: 887
            iana: CCN
        -   key: maimanah
            names:
            - Maimanah
            kind: city
            population: 200000
            lat: 35.931
            lon: 64.761
            gleam_id: 888
            iana: MMZ
        -   key: zaranj
            names:
            - Zaranj
            kind: city
            population: 50000
            lat: 30.972
            lon: 61.866
            gleam_id: 889
            iana: ZAJ
        -   key: faizabad
            names:
            - Faizabad
            kind: city
            population: 65000
            lat: 37.121
            lon: 70.518
            gleam_id: 890
            iana: FBD
        -   key: mazar e sharif
            names:
            - Mazar-e Sharif
            kind: city
            population: 458000
            lat: 36.707
            lon: 67.21
            gleam_id: 891
            iana: MZR
        -   key: kandahar
            names:
            - Kandahar
            kind: city
            population: 716000
            lat: 31.506
            lon: 65.848
            gleam_id: 892
            iana: KDH
        -   key: herat
            names:
            - Herat
            kind: city
            population: 481000
            lat: 34.21
            lon: 62.228
            gleam_id: 893
            iana: HEA
        -   key: farah
            names:
            - Farah
            kind: city
            population: 74000
            lat: 32.367
            lon: 62.183
            gleam_id: 894
            iana: FAH
        -   key: camp bastion
            names:
            - Camp Bastion
            kind: city
            lat: 31.864
            lon: 64.225
            gleam_id: 895
            iana: OAZ
        -   key: kunduz
            names:
            - Kunduz
            kind: city
            population: 260000
            lat: 36.665
            lon: 68.911
            gleam_id: 896
            iana: UND
        -   key: bamyan
            names:
            - Bamyan
            kind: city
            population: 62000
            lat: 34.817
            lon: 67.817
            gleam_id: 897
            iana: BIN
        -   key: kabul
            names:
            - Kabul
            kind: city
            population: 3277000
            lat: 34.566
            lon: 69.212
            gleam_id: 898
            iana: KBL
        -   key: tarin kot
            names:
            - Tarin Kot
            kind: city
            population: 10000
            lat: 32.604
            lon: 65.866
            gleam_id: 899
            iana: TII
    -   key: india
        names:
        - India
        kind: country
        population: 1359772000
        gleam_id: 98
        subregions:
        -   key: agatti island
            names:
            - Agatti Island
            kind: city
            lat: 10.824
            lon: 72.176
            gleam_id: 1039
            iana: AGX
        -   key: agra
            names:
            - Agra
            kind: city
            population: 1592000
            lat: 27.156
            lon: 77.961
            gleam_id: 1040
            iana: AGR
        -   key: jammu
            names:
            - Jammu
            kind: city
            population: 791000
            lat: 32.689
            lon: 74.837
            gleam_id: 1041
            iana: IXJ
        -   key: leh
            names:
            - Leh
            kind: city
            population: 37000
            lat: 34.136
            lon: 77.547
            gleam_id: 1042
            iana: IXL
        -   key: madurai
            names:
            - Madurai
            kind: city
            population: 910000
            lat: 9.835
            lon: 78.093
            gleam_id: 1043
            iana: IXM
        -   key: bagdogra
            names:
            - Bagdogra
            kind: city
            population: 17000
            lat: 26.681
            lon: 88.329
            gleam_id: 1044
            iana: IXB
        -   key: chandigarh
            names:
            - Chandigarh
            kind: city
            population: 979000
            lat: 30.674
            lon: 76.788
            gleam_id: 1045
            iana: IXC
        -   key: vishakhapatnam
            names:
            - Vishakhapatnam
            kind: city
            population: 1529000
            lat: 17.721
            lon: 83.225
            gleam_id: 1046
            iana: VTZ
        -   key: agartala
            names:
            - Agartala
            kind: city
            population: 203000
            lat: 23.887
            lon: 91.24
            gleam_id: 1047
            iana: IXA
        -   key: belgaum
            names:
            - Belgaum
            kind: city
            population: 609000
            lat: 15.859
            lon: 74.618
            gleam_id: 1048
            iana: IXG
        -   key: allahabad
            names:
            - Allahabad
            kind: city
            population: 1201000
            lat: 25.44
            lon: 81.734
            gleam_id: 1049
            iana: IXD
        -   key: mangalore
            names:
            - Mangalore
            kind: city
            population: 777000
            lat: 12.961
            lon: 74.89
            gleam_id: 1050
            iana: IXE
        -   key: silchar
            names:
            - Silchar
            kind: city
            population: 152000
            lat: 24.913
            lon: 92.979
            gleam_id: 1051
            iana: IXS
        -   key: aurangabad
            names:
            - Aurangabad
            kind: city
            population: 1113000
            lat: 19.863
            lon: 75.398
            gleam_id: 1052
            iana: IXU
        -   key: chennai
            names:
            - Chennai
            kind: city
            population: 7163000
            lat: 12.99
            lon: 80.169
            gleam_id: 1053
            iana: MAA
        -   key: port blair
            names:
            - Port Blair
            kind: city
            population: 128000
            lat: 11.641
            lon: 92.73
            gleam_id: 1054
            iana: IXZ
        -   key: pune
            names:
            - Pune
            kind: city
            population: 4672000
            lat: 18.582
            lon: 73.92
            gleam_id: 1055
            iana: PNQ
        -   key: ranchi
            names:
            - Ranchi
            kind: city
            population: 1044000
            lat: 23.314
            lon: 85.322
            gleam_id: 1056
            iana: IXR
        -   key: jaipur
            names:
            - Jaipur
            kind: city
            population: 2917000
            lat: 26.824
            lon: 75.812
            gleam_id: 1057
            iana: JAI
        -   key: bhubaneshwar
            names:
            - Bhubaneshwar
            kind: city
            population: 844000
            lat: 20.244
            lon: 85.818
            gleam_id: 1058
            iana: BBI
        -   key: patna
            names:
            - Patna
            kind: city
            population: 2158000
            lat: 25.591
            lon: 85.088
            gleam_id: 1059
            iana: PAT
        -   key: dimapur
            names:
            - Dimapur
            kind: city
            population: 136000
            lat: 25.884
            lon: 93.771
            gleam_id: 1060
            iana: DMU
        -   key: jabalpur
            names:
            - Jabalpur
            kind: city
            population: 1285000
            lat: 23.178
            lon: 80.052
            gleam_id: 1061
            iana: JLR
        -   key: rajahmundry
            names:
            - Rajahmundry
            kind: city
            population: 305000
            lat: 17.11
            lon: 81.818
            gleam_id: 1062
            iana: RJA
        -   key: coimbatore
            names:
            - Coimbatore
            kind: city
            population: 1696000
            lat: 11.03
            lon: 77.043
            gleam_id: 1063
            iana: CJB
        -   key: porbandar
            names:
            - Porbandar
            kind: city
            population: 235000
            lat: 21.649
            lon: 69.657
            gleam_id: 1064
            iana: PBD
        -   key: tiruchchirappalli
            names:
            - Tiruchchirappalli
            kind: city
            population: 866000
            lat: 10.765
            lon: 78.71
            gleam_id: 1065
            iana: TRZ
        -   key: surat
            names:
            - Surat
            kind: city
            population: 3842000
            lat: 21.114
            lon: 72.742
            gleam_id: 1066
            iana: STV
        -   key: kanpur
            names:
            - Kanpur
            kind: city
            population: 2823000
            lat: 26.404
            lon: 80.41
            gleam_id: 1067
            iana: KNU
        -   key: amritsar
            names:
            - Amritsar
            kind: city
            population: 1212000
            lat: 31.71
            lon: 74.797
            gleam_id: 1068
            iana: ATQ
        -   key: imphal
            names:
            - Imphal
            kind: city
            population: 265000
            lat: 24.76
            lon: 93.897
            gleam_id: 1069
            iana: IMF
        -   key: dharamsala
            names:
            - Dharamsala
            kind: city
            population: 20000
            lat: 32.165
            lon: 76.263
            gleam_id: 1070
            iana: DHM
        -   key: goa
            names:
            - Goa
            kind: city
            population: 21000
            lat: 15.381
            lon: 73.831
            gleam_id: 1071
            iana: GOI
        -   key: aizawl
            names:
            - Aizawl
            kind: city
            population: 283000
            lat: 23.841
            lon: 92.62
            gleam_id: 1072
            iana: AJL
        -   key: gorakhpur
