indent,names,kind,pop_mil,lat,lon,iana,gv_id
,world,,7713.000
    ,africa,continent,
        ,middle africa,region,
            ,angola,country,
                ,menongue,city,0.013,-14.658,17.720,SPP,0
                ,huambo,city,1.100,-12.809,15.760,NOV,1
                ,m'banza congo,city,,-6.270,14.247,SSY,2
                ,soyo,city,,-6.141,12.372,SZA,3
                ,lubango,city,0.126,-14.925,13.575,SDD,4
                ,kuito,city,,-12.405,16.947,SVP,5
                ,cabinda,city,0.092,-5.597,12.188,CAB,6
                ,luena,city,0.021,-11.768,19.898,LUO,7
                ,ondjiva,city,0.010,-17.044,15.684,VPE,8
                ,malange,city,,-9.525,16.312,MEG,9
                ,saurimo,city,0.041,-9.689,20.432,VHC,10
                ,luanda,city,5.173,-8.858,13.231,LAD,11
                ,catumbela,city,,-12.479,13.487,CBT,12
                ,namibe,city,0.133,-15.261,12.147,MSZ,13
            ,sao tome and principe,country,
                ,sao tome,city,0.088,0.378,6.712,TMS,551
            ,gabon,country,
                ,port gentil,city,0.117,-0.712,8.754,POG,646
                ,libreville,city,0.578,0.459,9.412,LBV,647
            ,cameroon,country,
                ,douala,city,1.906,4.006,9.719,DLA,805
                ,garoua,city,0.437,9.336,13.370,GOU,806
                ,yaounde,city,1.611,3.723,11.553,NSI,807
                ,ngaoundere,city,0.231,7.357,13.559,NGE,808
                ,maroua,city,0.320,10.451,14.257,MVR,809
            ,chad,country,
                ,n'djamena,city,0.989,12.134,15.034,NDJ,840
            ,"congo, dem. rep.|congo (kinshasa)",country,
                ,kisangani,city,0.578,0.482,25.338,FKI,1328
                ,bunia,city,0.097,1.566,30.221,BUX,1329
                ,gemena,city,0.198,3.235,19.771,GMA,1330
                ,kinshasa,city,7.843,-4.386,15.445,FIH,1331
                ,kongolo,city,0.105,-5.394,26.990,KOO,1332
                ,kindu,city,0.263,-2.919,25.915,KND,1333
                ,boende,city,0.032,-0.217,20.850,BNB,1334
                ,beni,city,0.333,0.575,29.474,BNC,1335
                ,lodja,city,0.068,-3.417,23.450,LJA,1336
                ,isiro,city,0.157,2.828,27.588,IRP,1337
                ,lubumbashi,city,1.352,-11.591,27.531,FBM,1338
                ,mbuji mayi,city,1.295,-6.121,23.569,MJM,1339
                ,tshikapa,city,0.267,-6.438,20.795,TSH,1340
                ,kalemie,city,0.206,-5.876,29.250,FMI,1341
                ,mbandaka,city,0.275,0.023,18.289,MDK,1342
                ,bukavu,city,0.437,-2.309,28.809,BKY,1343
                ,kananga,city,0.765,-5.900,22.469,KGA,1344
                ,goma,city,0.144,-1.671,29.239,GOM,1542
            ,"congo, rep.",country,
                ,pointe noire,city,,-4.816,11.887,PNR,1345
                ,brazzaville,city,,-4.252,15.253,BZV,1346
            ,equatorial guinea,country,
                ,malabo,city,0.156,3.755,8.709,SSG,2053
                ,bata,city,0.173,1.905,9.806,BSG,2054
            ,central african republic,country,
                ,bangui,city,0.832,4.398,18.519,BGF,2811
        ,northern africa,region,
            ,algeria,country,
                ,chlef,city,0.449,36.213,1.332,CFK,14
                ,hassi messaoud,city,0.018,31.673,6.140,HME,15
                ,setif,city,0.275,36.178,5.324,QSF,16
                ,laghouat,city,0.114,33.764,2.928,LOO,17
                ,el bayadh,city,0.067,33.722,1.093,EBH,18
                ,tebessa,city,0.172,35.432,8.121,TEE,19
                ,oran,city,0.798,35.624,-0.621,ORN,20
                ,in salah,city,,27.251,2.512,INZ,21
                ,in guezzam,city,,,,INF,22
                ,biskra,city,0.202,34.793,5.738,BSK,23
                ,constantine,city,0.605,36.276,6.620,CZL,24
                ,ouargla,city,0.176,31.917,5.413,OGX,25
                ,touggourt,city,0.134,33.068,6.089,TGR,26
                ,illizi,city,0.008,26.723,8.623,VVZ,27
                ,el golea,city,0.032,30.571,2.860,ELG,28
                ,el oued,city,0.177,33.511,6.777,ELU,29
                ,adrar,city,0.057,27.838,-0.186,AZR,30
                ,djanet,city,0.001,24.293,9.452,DJG,31
                ,batna,city,0.281,35.752,6.309,BLJ,32
                ,ghardaia,city,0.125,32.384,3.794,GHA,33
                ,bordj mokhtar,city,,21.375,0.924,BMW,34
                ,tlemcen,city,0.230,35.017,-1.450,TLM,35
                ,in amenas,city,,28.052,9.643,IAM,36
                ,mecheria,city,,33.536,-0.242,MZW,37
                ,tamanrasset,city,0.076,22.812,5.451,TMR,38
                ,timimoun,city,0.049,29.237,0.276,TMX,39
                ,bejaia,city,0.385,36.712,5.070,BJA,40
                ,jijel,city,0.148,36.795,5.874,GJL,41
                ,bechar,city,0.143,31.646,-2.270,CBH,42
                ,algiers,city,3.354,36.691,3.215,ALG,43
                ,mascara,city,0.108,35.208,0.147,MUW,44
                ,annaba,city,0.504,36.822,7.809,AAE,45
                ,tindouf,city,0.018,27.700,-8.167,TIN,46
                ,tiaret,city,0.184,35.341,1.463,TID,47
            ,libya,country,
                ,benghazi,city,1.180,32.097,20.270,BEN,154
                ,sirte,city,,31.063,16.595,SRX,155
                ,sebha,city,,26.987,14.472,SEB,156
                ,kufra,city,,24.179,23.314,AKF,157
                ,karasburg,city,,,,KAS,158
                ,misurata,city,,,,MRA,159
                ,ubari,city,,,,QUB,160
                ,ghat,city,0.024,25.146,10.143,GHT,161
                ,ghadames,city,,30.152,9.715,LTD,162
                ,beida,city,,32.789,21.964,LAQ,163
                ,tobruk,city,0.264,31.861,23.907,TOB,164
                ,tripoli,city,2.189,32.664,13.159,TIP,165
            ,morocco,country,
                ,agadir,city,0.825,30.325,-9.413,AGA,810
                ,tan tan,city,0.065,28.448,-11.161,TTA,811
                ,laayoune,city,,27.152,-13.219,EUN,812
                ,tetouan,city,,35.594,-5.320,TTU,813
                ,casablanca,city,3.181,33.368,-7.590,CMN,814
                ,errachidia,city,0.228,31.948,-4.398,ERH,815
                ,essaouira,city,,31.397,-9.682,ESU,816
                ,ouarzazate,city,,30.939,-6.909,OZZ,817
                ,al hoceima,city,,35.177,-3.840,AHU,818
                ,oujda,city,,34.787,-1.924,OUD,819
                ,rabat,city,1.705,34.051,-6.752,RBA,820
                ,nador,city,,34.989,-3.028,NDR,821
                ,guelmime,city,,,,GLN,822
                ,tangier,city,0.750,35.727,-5.917,TNG,823
                ,marrakech,city,0.872,31.607,-8.036,RAK,824
                ,dakhla,city,,23.718,-15.932,VIL,825
                ,fes,city,1.002,33.927,-4.978,FEZ,826
            ,tunisia,country,
                ,tunis,city,2.413,36.851,10.227,TUN,1790
                ,djerba,city,,33.875,10.776,DJE,1791
                ,enfidha,city,,36.076,10.439,NBE,1792
                ,sfax,city,0.453,34.718,10.691,SFA,1793
                ,tozeur,city,0.040,33.940,8.111,TOE,1794
                ,gabes,city,0.220,33.877,10.103,GAE,1795
            ,sudan,country,
                ,nyala,city,0.392,12.054,24.956,UYL,3010
                ,el obeid,city,0.393,13.153,30.233,EBD,3011
                ,addeain,city,,,,ADV,3012
                ,zalengei,city,,,,ZLX,3013
                ,el fasher,city,0.253,13.615,25.325,ELF,3014
                ,kassala,city,0.401,15.387,36.329,KSL,3015
                ,port sudan,city,0.490,19.434,37.234,PZU,3016
                ,khartoum,city,4.754,15.590,32.553,KRT,3017
                ,dongola,city,0.026,19.154,30.430,DOG,3018
                ,geneina,city,,13.482,22.467,EGN,3019
        ,western africa,region,
            ,niger,country,
                ,niamey,city,0.915,13.482,2.184,NIM,70
                ,agadez,city,0.118,16.966,8.000,AJY,71
                ,zinder,city,0.230,13.779,8.984,ZND,72
            ,ghana,country,
                ,sunyani,city,0.070,7.362,-2.329,NYI,99
                ,takoradi,city,,4.896,-1.775,TKD,100
                ,kumasi,city,1.646,6.715,-1.591,KMS,101
                ,tamale,city,0.361,9.557,-0.863,TML,102
                ,accra,city,2.121,5.605,-0.167,ACC,103
            ,cape verde|cabo verde,country,
                ,sao vicente island,city,,16.833,-25.055,VXE,133
                ,sao filipe,city,,14.885,-24.480,SFL,134
                ,sal island,city,,16.741,-22.949,SID,135
                ,sao nicolau island,city,,16.588,-24.285,SNE,136
                ,praia,city,0.113,14.925,-23.493,RAI,137
                ,boa vista island,city,,16.136,-22.889,BVC,138
            ,liberia,country,
                ,monrovia,city,1.041,6.234,-10.362,ROB,153
            ,burkina faso,country,
                ,bobo dioulasso,city,0.360,11.160,-4.331,BOY,273
                ,ouagadougou,city,1.149,12.353,-1.512,OUA,274
            ,mauritania,country,
                ,zouerate,city,0.056,22.756,-12.484,OUZ,280
                ,nema,city,0.200,16.622,-7.317,EMN,281
                ,nouadhibou,city,0.087,20.933,-17.030,NDB,282
                ,nouakchott,city,0.742,18.310,-15.970,NKC,283
            ,sierra leone,country,
                ,freetown,city,0.827,8.616,-13.195,FNA,490
            ,guinea,country,
                ,conakry,city,1.494,9.577,-13.612,CKY,495
            ,benin,country,
                ,cotonou,city,0.762,6.357,2.384,COO,717
            ,togo,country,
                ,lome,city,1.452,6.166,1.255,LFW,723
            ,nigeria,country,
                ,owerri,city,0.215,5.427,7.206,QOW,1408
                ,lagos,city,9.466,6.577,3.321,LOS,1409
                ,warri,city,0.830,5.596,5.818,QRW,1410
                ,gombe,city,0.270,10.298,10.896,GMO,1411
                ,kaduna,city,1.442,10.696,7.320,KAD,1412
                ,kano,city,3.140,12.048,8.525,KAN,1413
                ,enugu,city,0.689,6.474,7.562,ENU,1414
                ,benin city,city,1.190,6.317,5.600,BNI,1415
                ,ilorin,city,0.771,8.440,4.494,ILR,1416
                ,ibadan,city,2.628,7.362,3.978,IBA,1417
                ,katsina,city,0.432,,,DKA,1418
                ,maiduguri,city,0.896,11.855,13.081,MIU,1419
                ,jos,city,0.817,9.640,8.869,JOS,1420
                ,port harcourt,city,1.020,5.015,6.950,PHC,1421
                ,sokoto,city,0.732,12.916,5.207,SKO,1422
                ,yola,city,0.096,9.258,12.430,YOL,1423
                ,calabar,city,0.462,4.976,8.347,CBQ,1424
                ,asaba,city,,6.204,6.665,ABB,1425
                ,abuja,city,1.576,9.007,7.263,ABV,1426
            ,senegal,country,
                ,ziguinchor,city,0.192,12.556,-16.282,ZIG,1474
                ,dakar,city,2.604,14.740,-17.490,DKR,1475
                ,cap skiring,city,,12.395,-16.748,CSK,1476
            ,"gambia|gambia, the",country,
                ,banjul,city,0.043,13.338,-16.652,BJL,1554
            ,cote d'ivoire,country,
                ,ouango fitini,city,,,,OFI,2049
                ,abidjan,city,3.802,5.261,-3.926,ABJ,2050
            ,guinea bissau,country,
                ,bissau,city,0.403,11.895,-15.654,OXB,2579
            ,mali,country,
                ,bamako,city,1.494,12.534,-7.950,BKO,2919
        ,southern africa,region,
            ,namibia,country,
                ,ondangwa,city,,-17.878,15.953,OND,74
                ,katima mulilo,city,0.025,-17.634,24.177,MPA,75
                ,windhoek,city,0.268,-22.480,17.471,WDH,76
                ,walvis bay,city,,-22.980,14.645,WVB,77
                ,rundu,city,0.058,-17.956,19.719,NDU,78
                ,luderitz,city,0.015,-26.687,15.243,LUD,79
                ,oranjemund,city,0.008,-28.585,16.447,OMD,80
            ,botswana,country,
                ,maun,city,0.050,-19.973,23.431,MUB,217
                ,kasane,city,0.009,-17.833,25.162,BBK,218
                ,gaborone,city,0.208,-24.555,25.918,GBE,219
                ,francistown,city,0.090,-21.160,27.475,FRW,220
            ,south africa,country,
                ,george,city,0.175,-34.006,22.379,GRJ,625
                ,johannesburg,city,3.435,-26.139,28.246,JNB,626
                ,richards bay,city,,-28.741,32.092,RCB,627
                ,nelspruit,city,,-25.383,31.106,MQP,628
                ,polokwane,city,0.220,-23.845,29.459,PTG,629
                ,upington,city,0.071,-28.399,21.260,UTN,630
                ,umtata,city,0.138,-31.546,28.673,UTT,631
                ,east london,city,0.339,-33.036,27.826,ELS,632
                ,hoedspruit,city,,-24.369,31.049,HDS,633
                ,pietermaritzburg,city,0.751,-29.649,30.399,PZB,634
                ,cape town,city,3.215,-33.965,18.602,CPT,635
                ,sun city,city,,-25.334,27.173,NTY,636
                ,bloemfontein,city,0.463,-29.093,26.302,BFN,637
                ,phalaborwa,city,,-23.937,31.155,PHW,638
                ,durban,city,2.729,-29.614,31.120,DUR,639
                ,kimberley,city,0.165,-28.803,24.765,KIM,640
                ,port elizabeth,city,1.021,-33.985,25.617,PLZ,641
                ,ulundi,city,0.021,-28.321,31.417,ULD,642
            ,lesotho,country,
                ,maseru,city,0.361,-29.462,27.552,MSU,829
            ,swaziland,country,
                ,manzini,city,0.111,-26.529,31.308,MTS,2580
        ,eastern africa,region,
            ,mayotte,country,
                ,dzaoudzi,city,,-12.805,45.281,DZA,199
            ,tanzania,country,
                ,kigoma,city,0.164,-4.886,29.671,TKQ,201
                ,sumbawanga,city,0.089,,,SUT,202
                ,tanga,city,0.225,-5.092,39.071,TGT,203
                ,seronera,city,,-2.458,34.822,SEU,204
                ,kilimanjaro,city,,-3.429,37.075,JRO,205
                ,zanzibar,city,0.404,-6.222,39.225,ZNZ,206
                ,iringa,city,0.112,-7.669,35.752,IRI,207
                ,songea,city,0.126,-10.683,35.583,SGX,208
                ,tabora,city,0.146,-5.076,32.833,TBO,209
                ,mtwara,city,0.097,-10.339,40.182,MYW,210
                ,mwanza,city,0.494,-2.444,32.933,MWZ,211
                ,bukoba,city,0.101,-1.332,31.821,BKZ,212
                ,lake manyara,city,,-3.376,35.818,LKY,213
                ,mbeya,city,0.292,-8.920,33.274,MBI,214
                ,arusha,city,0.341,-3.368,36.633,ARK,215
                ,dar es salaam,city,2.930,-6.878,39.203,DAR,216
            ,ethiopia,country,
                ,mekele,city,0.096,13.467,39.534,MQX,226
                ,gambela,city,,8.129,34.563,GMB,227
                ,addis ababa,city,3.100,8.978,38.799,ADD,228
                ,dire dawa,city,0.252,9.625,41.854,DIR,229
                ,jimma,city,,7.666,36.817,JIM,230
                ,jijiga,city,0.057,9.332,42.912,JIJ,231
                ,humera,city,,14.250,36.583,HUE,232
                ,semera,city,,,,SZE,233
                ,inda selassie,city,,,,SHC,234
                ,axum,city,,14.147,38.773,AXU,235
                ,bahar dar,city,,11.608,37.322,BJR,236
                ,arba minch,city,,6.039,37.590,AMH,237
                ,gonder,city,0.156,12.520,37.434,GDQ,238
                ,gode,city,0.075,5.935,43.579,GDE,239
                ,kebri dehar,city,,6.734,44.253,ABK,240
                ,asosa,city,0.031,10.019,34.586,ASO,241
                ,lalibela,city,,11.975,38.980,LLI,242
            ,djibouti,country,
            ,seychelles,country,
                ,mahe island,city,,-4.674,55.522,SEZ,552
            ,burundi,country,
                ,bujumbura,city,0.332,-3.324,29.319,BJM,900
            ,zimbabwe,country,
                ,bulawayo,city,0.699,-20.017,28.618,BUQ,958
                ,victoria falls,city,0.036,-18.096,25.839,VFA,959
                ,harare,city,1.572,-17.932,31.093,HRE,960
            ,mozambique,country,
                ,beira,city,0.531,-19.796,34.908,BEW,961
                ,cuamba,city,0.073,-14.815,36.530,FXO,962
                ,nampula,city,0.389,-15.106,39.282,APL,963
                ,pemba,city,0.111,-12.992,40.524,POL,964
                ,nacala,city,,-14.488,40.712,MNC,965
                ,maputo,city,1.446,-25.921,32.573,MPM,966
                ,tete,city,0.129,-16.105,33.640,TET,967
                ,inhambane,city,0.116,-23.876,35.409,INH,968
                ,chimoio,city,0.257,-19.151,33.429,VPY,969
                ,lichinga,city,0.110,-13.274,35.266,VXC,970
                ,mocimboa da praia,city,,-11.362,40.355,MZB,971
                ,quelimane,city,0.189,-17.855,36.869,UEL,972
                ,vilankulos,city,,-22.018,35.313,VNX,973
            ,mauritius,country,
                ,rodrigues island,city,,-19.758,63.361,RRG,1197
            ,reunion,country,
                ,st denis,city,,-20.887,55.510,RUN,1232
            ,comoros,country,
                ,anjouan,city,,-12.132,44.430,AJN,1359
                ,moroni,city,0.129,-11.534,43.272,HAH,1360
            ,madagascar,country,
                ,ranohira,city,,,,RLR,1443
                ,morondava,city,0.037,-20.285,44.318,MOQ,1444
                ,nosy be,city,,-13.312,48.315,NOS,1445
                ,antsiranana,city,0.083,-12.349,49.292,DIE,1446
                ,maroantsetra,city,0.038,-15.437,49.688,WMN,1447
                ,sambava,city,0.043,-14.279,50.175,SVB,1448
                ,antananarivo,city,1.697,-18.797,47.479,TNR,1449
                ,mahajanga,city,0.155,-15.667,46.351,MJN,1450
                ,belo tsiribihina,city,,-19.687,44.542,BMD,1451
                ,toliara,city,0.115,-23.383,43.729,TLE,1452
                ,antalaha,city,0.047,-14.999,50.320,ANM,1453
                ,toamasina,city,0.210,-18.110,49.393,TMM,1454
                ,mananara avaratra,city,,-16.164,49.774,WMR,1455
                ,tolanaro,city,0.017,-25.038,46.956,FTU,1456
                ,ste marie,city,,-17.094,49.816,SMS,1457
                ,andavadoaka,city,,,,DVD,1458
            ,rwanda,country,
                ,kigali,city,0.860,-1.969,30.140,KGL,1543
                ,cyangugu,city,0.020,-2.462,28.908,KME,1544
            ,zambia,country,
                ,ndola,city,0.396,-12.998,28.665,NLA,1545
                ,mongu,city,0.053,-15.255,23.162,MNR,1546
                ,mansa,city,0.042,-11.137,28.873,MNS,1547
                ,kasama,city,0.200,-10.217,31.133,KAA,1548
                ,lusaka,city,1.328,-15.331,28.453,LUN,1549
                ,mfuwe,city,,-13.259,31.937,MFU,1550
                ,livingstone,city,0.165,-17.822,25.823,LVI,1551
                ,solwezi,city,0.065,,,SLI,1552
                ,chipata,city,0.086,-13.558,32.587,CIP,1553
            ,kenya,country,
                ,nanyuki,city,0.036,-0.062,37.041,NYK,1723
                ,eldoret,city,0.353,0.404,35.239,EDL,1724
                ,lodwar,city,0.020,3.122,35.609,LOK,1725
                ,wajir,city,0.046,1.733,40.092,WJR,1726
                ,meru,city,0.047,0.165,38.195,JJM,1727
                ,masai mara,city,,-1.406,35.008,MRE,1728
                ,lokichogio,city,,4.204,34.348,LKG,1729
                ,malindi,city,0.094,-3.229,40.102,MYD,1730
                ,samburu,city,,0.531,37.534,UAS,1731
                ,lamu,city,0.025,-2.252,40.913,LAU,1732
                ,kitale,city,0.150,0.972,34.959,KTL,1733
                ,amboseli,city,,-2.645,37.253,ASV,1734
                ,nakuru,city,0.365,,,NUU,1735
                ,kisumu,city,0.396,-0.086,34.729,KIS,1736
                ,mombasa,city,0.882,-4.035,39.594,MBA,1737
                ,nairobi,city,3.010,-1.319,36.928,NBO,1738
            ,south sudan,country,
                ,juba,city,0.112,4.872,31.601,JUB,2538
                ,rumbek,city,0.032,6.825,29.669,RBX,2539
            ,somalia,country,
                ,berbera,city,,10.389,44.941,BBO,2829
                ,bosaso,city,,11.275,49.149,BSA,2830
                ,mogadishu,city,1.100,2.014,45.305,MGQ,2831
                ,galcaio,city,,6.781,47.455,GLK,2832
                ,hargeisa,city,,9.518,44.089,HGA,2833
                ,baidoa,city,0.130,3.102,43.629,BIB,2834
                ,kisimayu,city,,-0.377,42.459,KMU,2835
            ,eritrea,country,
                ,asmara,city,0.621,15.292,38.911,ASM,2848
                ,massawa,city,0.143,15.670,39.370,MSW,2849
            ,malawi,country,
                ,likoma island,city,,-12.076,34.737,LIX,2869
                ,blantyre,city,0.585,-15.679,34.974,BLZ,2870
                ,chelinda,city,,,,CEH,2871
                ,lilongwe,city,0.647,-13.789,33.781,LLW,2872
            ,uganda,country,
                ,entebbe,city,0.175,0.042,32.444,EBB,3163
                ,kasese,city,0.067,0.183,30.100,KSE,3164
                ,arua,city,0.250,3.050,30.917,RUA,3165
                ,pakuba,city,,,,PAF,3166
    ,asia,continent,
        ,southern asia,region,
            ,bangladesh,country,
                ,saidpur,city,0.232,25.759,88.909,SPD,61
                ,sylhet,city,0.237,24.963,91.867,ZYL,62
                ,rajshahi,city,0.810,24.437,88.617,RJH,63
                ,cox's bazar,city,,21.452,91.964,CXB,64
                ,ishurdi,city,,24.153,89.049,IRD,65
                ,barisal,city,0.202,22.801,90.301,BZL,66
                ,jessore,city,0.244,23.184,89.161,JSR,67
                ,chittagong,city,4.529,22.250,91.813,CGP,68
                ,dhaka,city,12.797,23.843,90.398,DAC,69
            ,pakistan,country,
                ,karachi,city,12.130,24.907,67.161,KHI,105
                ,gilgit,city,0.217,35.919,74.334,GIL,106
                ,dalbandin,city,,28.878,64.400,DBA,107
                ,islamabad,city,0.780,33.561,72.852,ISB,108
                ,turbat,city,0.148,25.986,63.030,TUK,109
                ,sukkur,city,0.418,27.722,68.792,SKZ,110
                ,chitral,city,,35.887,71.801,CJL,111
                ,sui,city,,28.645,69.177,SUL,112
                ,panjgur,city,,26.955,64.132,PJG,113
                ,rahim yar khan,city,,28.384,70.280,RYK,114
                ,lahore,city,6.577,31.522,74.404,LHE,115
                ,dera ismail khan,city,0.102,31.909,70.897,DSK,116
                ,saidu sharif,city,1.860,34.814,72.353,SDT,117
                ,faisalabad,city,2.617,31.365,72.995,LYP,118
                ,peshawar,city,1.303,33.994,71.515,PEW,119
                ,kadanwari,city,,27.167,69.317,KCF,120
                ,quetta,city,0.768,30.251,66.938,UET,121
                ,mohenjodaro,city,,27.335,68.143,MJD,122
                ,hyderabad (pk),city,,25.318,68.366,HDD,123
                ,zhob,city,0.088,31.358,69.464,PZH,124
                ,sialkot,city,,32.536,74.364,SKT,125
                ,dadu,city,,,,DDU,126
                ,gwadar,city,0.052,25.233,62.329,GWD,127
                ,skardu,city,,35.335,75.536,KDU,128
                ,dera ghazi khan,city,0.236,29.961,70.486,DEA,129
                ,bahawalpur,city,0.553,29.348,71.718,BHV,130
                ,multan,city,1.522,30.203,71.419,MUX,131
                ,nawabshah,city,0.230,26.219,68.390,WNS,132
            ,nepal,country,
                ,bhairawa,city,,27.506,83.416,BWA,553
                ,jomsom,city,,28.780,83.723,JMO,554
                ,dolpa,city,,28.986,82.819,DOP,555
                ,janakpur,city,,26.709,85.922,JKR,556
                ,simikot,city,,29.971,81.819,IMK,557
                ,dhangarhi,city,,28.753,80.582,DHI,558
                ,simara,city,,27.160,84.980,SIF,559
                ,lukla,city,,27.687,86.730,LUA,560
                ,nepalganj,city,0.064,28.104,81.667,KEP,561
                ,surkhet,city,,28.586,81.636,SKH,562
                ,jumla,city,0.009,29.274,82.193,JUM,563
                ,tumlingtar,city,,27.315,87.193,TMI,564
                ,bharatpur,city,,27.678,84.429,BHR,565
                ,kathmandu,city,0.895,27.697,85.359,KTM,566
                ,biratnagar,city,0.182,26.482,87.264,BIR,567
                ,bhadrapur,city,,26.571,88.080,BDP,568
                ,pokhara,city,0.200,28.201,83.982,PKR,569
            ,sri lanka,country,
                ,batticaloa,city,0.129,7.706,81.679,BTC,754
                ,dickwella,city,,,,DIW,755
                ,kandy,city,0.112,,,KDZ,756
                ,trincomalee,city,0.108,,,THW,757
                ,colombo,city,0.217,7.181,79.884,CMB,758
            ,afghanistan,country,
                ,chaghcharan,city,,34.533,65.267,CCN,887
                ,maimanah,city,0.200,35.931,64.761,MMZ,888
                ,zaranj,city,0.050,30.972,61.866,ZAJ,889
                ,faizabad,city,0.065,37.121,70.518,FBD,890
                ,mazar e sharif,city,0.458,36.707,67.210,MZR,891
                ,kandahar,city,0.716,31.506,65.848,KDH,892
                ,herat,city,0.481,34.210,62.228,HEA,893
                ,farah,city,0.074,32.367,62.183,FAH,894
                ,camp bastion,city,,31.864,64.225,OAZ,895
                ,kunduz,city,0.260,36.665,68.911,UND,896
                ,bamyan,city,0.062,34.817,67.817,BIN,897
                ,kabul,city,3.277,34.566,69.212,KBL,898
                ,tarin kot,city,0.010,32.604,65.866,TII,899
            ,india,country,
                ,agatti island,city,,10.824,72.176,AGX,1039
                ,agra,city,1.592,27.156,77.961,AGR,1040
                ,jammu,city,0.791,32.689,74.837,IXJ,1041
                ,leh,city,,34.136,77.547,IXL,1042
                ,madurai,city,,9.835,78.093,IXM,1043
                ,bagdogra,city,,26.681,88.329,IXB,1044
                ,chandigarh,city,0.979,30.674,76.788,IXC,1045
                ,vishakhapatnam,city,1.529,17.721,83.225,VTZ,1046
                ,agartala,city,0.203,23.887,91.240,IXA,1047
                ,belgaum,city,0.609,15.859,74.618,IXG,1048
                ,allahabad,city,1.201,25.440,81.734,IXD,1049
                ,mangalore,city,0.777,12.961,74.890,IXE,1050
                ,silchar,city,0.152,24.913,92.979,IXS,1051
                ,aurangabad,city,1.113,19.863,75.398,IXU,1052
                ,chennai,city,7.163,12.990,80.169,MAA,1053
                ,port blair,city,0.128,11.641,92.730,IXZ,1054
                ,pune,city,4.672,18.582,73.920,PNQ,1055
                ,ranchi,city,1.044,23.314,85.322,IXR,1056
                ,jaipur,city,2.917,26.824,75.812,JAI,1057
                ,bhubaneshwar,city,0.844,20.244,85.818,BBI,1058
                ,patna,city,2.158,25.591,85.088,PAT,1059
                ,dimapur,city,,25.884,93.771,DMU,1060
                ,jabalpur,city,1.285,23.178,80.052,JLR,1061
                ,rajahmundry,city,0.305,17.110,81.818,RJA,1062
                ,coimbatore,city,1.696,11.030,77.043,CJB,1063
                ,porbandar,city,0.235,21.649,69.657,PBD,1064
                ,tiruchchirappalli,city,,10.765,78.710,TRZ,1065
                ,surat,city,3.842,21.114,72.742,STV,1066
                ,kanpur,city,,26.404,80.410,KNU,1067
                ,amritsar,city,1.212,31.710,74.797,ATQ,1068
                ,imphal,city,0.265,24.760,93.897,IMF,1069
                ,dharamsala,city,,32.165,76.263,DHM,1070
                ,goa,city,,15.381,73.831,GOI,1071
                ,aizawl,city,0.283,23.841,92.620,AJL,1072
                ,gorakhpur,city,0.674,26.740,83.450,GOP,1073
                ,vijayawada,city,,16.530,80.797,VGA,1074
                ,nanded,city,0.624,19.183,77.317,NDC,1075
                ,rupsi,city,,,,RUP,1076
                ,dibrugarh,city,0.166,27.484,95.017,DIB,1077
                ,diu,city,0.024,20.713,70.921,DIU,1078
                ,nagpur,city,2.454,21.092,79.047,NAG,1079
                ,hubli,city,0.890,15.362,75.085,HBX,1080
                ,srinagar,city,1.140,33.987,74.774,SXR,1081
                ,lucknow,city,2.695,26.761,80.889,LKO,1082
                ,kochi (in),city,,10.152,76.402,COK,1083
                ,thiruvananthapuram,city,0.954,8.482,76.920,TRV,1084
                ,bengaluru,city,6.787,13.198,77.706,BLR,1085
                ,udaipur,city,0.470,24.618,73.896,UDR,1086
                ,shillong,city,0.376,25.704,91.979,SHL,1087
                ,ludhiana,city,1.649,30.855,75.953,LUH,1088
                ,raipur,city,0.875,21.180,81.739,RPR,1089
                ,mumbai,city,18.978,19.089,72.868,BOM,1090
                ,tuticorin,city,0.436,,,TCR,1091
                ,jamnagar,city,,22.465,70.013,JGA,1092
                ,gwalior,city,0.978,26.293,78.228,GWL,1093
                ,hyderabad (in),city,,17.231,78.430,HYD,1094
                ,kolkata,city,14.787,22.655,88.447,CCU,1095
                ,kozhikode,city,,11.137,75.955,CCJ,1096
                ,mysore,city,0.887,12.230,76.656,MYQ,1097
                ,jodhpur,city,0.995,26.251,73.049,JDH,1098
                ,delhi,city,15.926,28.567,77.103,DEL,1099
                ,dehra dun,city,0.714,30.190,78.180,DED,1100
                ,ahmedabad,city,,23.077,72.635,AMD,1101
                ,jorhat,city,0.069,26.732,94.175,JRH,1102
                ,bhuj,city,0.289,23.288,69.670,BHJ,1103
                ,bhopal,city,1.727,23.288,77.337,BHO,1104
                ,bhavnagar,city,0.555,21.752,72.185,BHU,1105
                ,rajkot,city,1.260,22.309,70.780,RAJ,1106
                ,varanasi,city,1.352,25.452,82.859,VNS,1107
                ,pondicherry,city,,11.968,79.812,PNY,1108
                ,khajuraho,city,,24.817,79.919,HJR,1109
                ,kullu,city,,31.877,77.154,KUU,1110
                ,gaya,city,0.424,24.744,84.951,GAY,1111
                ,guwahati,city,0.983,26.106,91.586,GAU,1112
                ,tirupati,city,0.287,13.632,79.543,TIR,1113
                ,vadodara,city,1.756,22.336,73.226,BDQ,1114
                ,indore,city,2.026,22.722,75.801,IDR,1115
            ,bhutan,country,
                ,paro,city,0.015,27.403,89.425,PBH,1117
            ,maldives,country,
                ,maamigili island,city,,3.471,72.836,VAM,1477
                ,dharavandhoo island,city,,5.156,73.130,DRV,1478
                ,male,city,0.113,4.192,73.529,MLE,1479
                ,hanimaadhoo island,city,,6.744,73.171,HAQ,1480
                ,fuvahmulak island,city,,,,FVM,1481
                ,kooddoo island,city,,0.732,73.434,GKK,1482
                ,kaadedhdhoo island,city,,0.488,72.997,KDM,1483
                ,kadhdhoo island,city,,1.859,73.522,KDO,1484
                ,gan island,city,,-0.693,73.156,GAN,1485
            ,iran,country,
                ,ilam,city,,33.587,46.405,IIL,2927
                ,ramsar,city,,36.910,50.680,RZR,2928
                ,bandar mahshahr,city,,30.556,49.152,MRX,2929
                ,sabzevar,city,0.226,36.168,57.595,AFZ,2930
                ,ahwaz,city,,31.337,48.762,AWZ,2931
                ,gorgan,city,0.281,36.909,54.401,GBT,2932
                ,bushehr,city,,28.945,50.835,BUZ,2933
                ,sari,city,,36.636,53.194,SRY,2934
                ,ardabil,city,0.415,38.326,48.424,ADU,2935
                ,kalaleh,city,,37.383,55.452,KLM,2936
                ,yasouj,city,,30.701,51.545,YES,2937
                ,bandar abbas,city,,27.218,56.378,BND,2938
                ,sirjan,city,0.175,29.551,55.673,SYJ,2939
                ,shiraz,city,1.240,29.539,52.590,SYZ,2940
                ,chah bahar,city,,25.443,60.382,ZBR,2941
                ,shahrud,city,0.132,36.425,55.104,RUD,2942
                ,now shahr,city,,36.663,51.465,NSH,2943
                ,yazd,city,0.478,31.905,54.277,AZD,2944
                ,parsabad,city,,39.604,47.882,PFQ,2945
                ,zahedan,city,0.599,29.476,60.906,ZAH,2946
                ,asaloyeh,city,,27.380,52.738,PGU,2947
                ,hamadan,city,0.528,34.869,48.553,HDM,2948
                ,kermanshah,city,0.828,34.346,47.158,KSH,2949
                ,tabriz,city,1.413,38.134,46.235,TBZ,2950
                ,kerman,city,0.578,30.274,56.951,KER,2951
                ,sanandaj,city,0.349,35.246,47.009,SDG,2952
                ,rasht,city,0.595,37.323,49.618,RAS,2953
                ,tabas,city,,33.668,56.893,TCX,2954
                ,mashhad,city,2.469,36.235,59.641,MHD,2955
                ,bojnurd,city,0.209,37.493,57.308,BJB,2956
                ,shahre kord,city,,32.297,50.842,CQD,2957
                ,dezful,city,0.315,32.434,48.398,DEF,2958
                ,maragheh,city,0.151,37.348,46.128,ACP,2959
                ,zabol,city,0.234,31.098,61.544,ACZ,2960
                ,birjand,city,0.325,32.898,59.266,XBJ,2961
                ,abadan,city,,30.371,48.228,ABD,2962
                ,esfahan,city,1.628,32.751,51.861,IFN,2963
                ,urumiyeh,city,,37.668,45.069,OMH,2964
                ,kish island,city,,26.526,53.980,KIH,2965
                ,tehran,city,7.873,35.689,51.313,THR,2966
                ,bam,city,0.099,29.084,58.450,BXR,2967
                ,gheshm island,city,,,,GSM,2968
                ,khoy,city,,38.428,44.974,KHY,2969
                ,khorramabad,city,0.375,33.435,48.283,KHD,2970
                ,bandar lengeh,city,,26.532,54.825,BDH,2971
                ,lar,city,,27.675,54.383,LRR,2972
        ,western asia|middle east,region,371.000
            ,qatar,country,
                ,doha,city,1.450,25.273,51.608,DOH,73
            ,jordan,country,
                ,amman,city,1.060,31.723,35.993,AMM,151
                ,aqaba,city,,29.612,35.018,AQJ,152
            ,saudi arabia,country,
                ,tabuk,city,0.548,28.365,36.619,TUU,245
                ,turaif,city,,31.692,38.732,TUI,246
                ,dammam,city,,26.471,49.798,DMM,247
                ,nejran,city,,17.611,44.419,EAM,248
                ,hofuf,city,,25.285,49.485,HOF,249
                ,gurayat,city,,31.412,37.279,URY,250
                ,jouf,city,,29.785,40.100,AJF,251
                ,madinah,city,,24.553,39.705,MED,252
                ,hail,city,,27.438,41.686,HAS,253
                ,wadi al dawaser,city,,20.504,45.200,WAE,254
                ,yanbu al bahr,city,,24.144,38.063,YNB,255
                ,riyadh,city,4.465,24.958,46.699,RUH,256
                ,gassim,city,,26.303,43.774,ELQ,257
                ,jazan,city,0.105,16.901,42.586,GIZ,258
                ,abha,city,0.211,18.240,42.657,AHB,259
                ,sharurah,city,,17.467,47.121,SHW,260
                ,wedjh,city,,26.199,36.476,EJH,261
                ,jeddah,city,3.012,21.680,39.157,JED,262
                ,al baha,city,,20.296,41.634,ABT,263
                ,bisha,city,,19.984,42.621,BHH,264
                ,rafha,city,0.065,29.626,43.491,RAH,265
                ,arar,city,,30.907,41.138,RAE,266
                ,taif,city,,21.483,40.543,TIF,267
                ,qaisumah,city,,28.335,46.125,AQI,268
                ,al ula,city,,26.480,38.129,ULH,269
                ,dawadmi,city,,24.450,44.121,DWD,270
            ,lebanon,country,
                ,beirut,city,1.846,33.821,35.488,BEY,271
            ,yemen,country,
                ,aden,city,1.000,12.830,45.029,ADE,579
                ,hodeidah,city,,14.753,42.976,HOD,580
                ,mukalla,city,,14.663,49.375,RIY,581
                ,sayun,city,,15.966,48.788,GXF,582
                ,sanaa,city,2.008,15.476,44.220,SAH,583
                ,socotra,city,,12.631,53.906,SCT,584
                ,taizz,city,,13.686,44.139,TAI,585
                ,ataq,city,,14.551,46.826,AXK,586
                ,al ghaydah,city,,16.192,52.175,AAY,587
            ,syria,country,
                ,kamishly,city,,37.021,41.191,KAC,650
                ,latakia,city,0.539,35.401,35.949,LTK,651
                ,aleppo,city,2.738,36.181,37.224,ALP,652
                ,damascus,city,2.466,33.411,36.516,DAM,653
            ,georgia,country,
                ,kutaisi,city,0.184,42.177,42.483,KUT,841
                ,batumi,city,0.156,41.610,41.600,BUS,842
                ,tbilisi,city,1.100,41.669,44.955,TBS,843
            ,israel,country,
                ,nevatim,city,,31.208,35.012,VTM,1204
                ,tel aviv,city,,32.011,34.887,TLV,1205
                ,haifa,city,1.011,32.809,35.043,HFA,1206
                ,eilat,city,,29.561,34.960,ETH,1207
            ,turkey,country,
                ,konya,city,0.919,37.979,32.562,KYA,1740
                ,sivas,city,0.264,39.814,36.904,VAS,1741
                ,edremit,city,,39.555,27.014,EDO,1742
                ,dalaman,city,,36.713,28.792,DLM,1743
                ,mardin,city,0.071,37.223,40.632,MQM,1744
                ,adiyaman,city,0.224,37.731,38.469,ADF,1745
                ,izmir,city,2.587,38.292,27.157,ADB,1746
                ,denizli,city,0.372,37.786,29.701,DNZ,1747
                ,kutahya,city,0.185,39.113,30.128,KZR,1748
                ,ankara,city,3.716,40.128,32.995,ESB,1749
                ,van,city,0.372,38.468,43.332,VAN,1750
                ,trabzon,city,0.765,40.995,39.790,TZX,1751
                ,erzurum,city,0.421,39.957,41.170,ERZ,1752
                ,erzincan,city,0.129,39.710,39.527,ERC,1753
                ,isparta,city,0.172,37.855,30.368,ISE,1754
                ,tekirdag,city,0.122,41.138,27.919,TEQ,1755
                ,agri,city,0.088,39.655,43.026,AJI,1756
                ,malatya,city,0.462,38.435,38.091,MLX,1757
                ,istanbul,city,10.061,41.275,28.752,IST,1758
                ,adana,city,1.293,36.982,35.280,ADA,1759
                ,bursa,city,1.492,40.255,29.563,YEI,1760
                ,diyarbakir,city,0.645,37.894,40.201,DIY,1761
                ,nevsehir,city,0.076,38.772,34.535,NAV,1762
                ,kahramanmaras,city,0.376,37.539,36.954,KCM,1763
                ,hatay,city,0.306,36.363,36.282,HTY,1764
                ,sirnak,city,,37.365,42.058,NKT,1765
                ,sanliurfa,city,0.450,37.446,38.896,GNY,1766
                ,eskisehir,city,0.515,39.810,30.519,AOE,1767
                ,antalya,city,0.783,36.899,30.801,AYT,1768
                ,kars,city,0.077,40.562,43.115,KSY,1769
                ,carsamba,city,,41.255,36.567,SZF,1770
                ,gaziantep,city,1.044,36.947,37.479,GZT,1771
                ,gazipasa,city,,36.299,32.301,GZP,1772
                ,amasya,city,0.083,40.829,35.522,MZH,1773
                ,bodrum,city,,37.251,27.664,BJV,1774
                ,elazig,city,0.271,38.607,39.291,EZS,1775
                ,igdir,city,,39.977,43.877,IGD,1776
                ,batman,city,0.302,37.929,41.117,BAL,1777
                ,kastamonu,city,0.070,41.314,33.796,KFS,1778
                ,kayseri,city,0.593,38.770,35.495,ASR,1779
                ,bingol,city,0.081,38.859,40.596,BGG,1780
                ,mus,city,0.083,38.748,41.661,MSR,1781
                ,kocaeli,city,0.467,40.735,30.083,KCO,1782
            ,oman,country,
                ,muscat,city,0.735,23.593,58.284,MCT,1784
                ,salalah,city,0.204,17.039,54.091,SLL,1785
                ,khasab,city,,26.171,56.241,KHS,1786
            ,azerbaijan,country,
                ,baku,city,2.122,40.467,50.047,GYD,2574
                ,nakchivan,city,,39.189,45.458,NAJ,2575
                ,gabala,city,,40.827,47.712,GBB,2576
                ,ganja,city,,40.738,46.318,KVD,2577
                ,lankaran,city,0.060,38.746,48.818,LLK,2578
            ,kuwait,country,
            ,"cyprus, northern",country,
                ,ercan,city,,35.155,33.496,ECN,2862
            ,iraq,country,
                ,erbil,city,0.926,36.238,43.963,EBL,2912
                ,basrah,city,,30.549,47.662,BSR,2913
                ,sulaymaniyah,city,,35.562,45.317,ISU,2914
                ,baghdad,city,5.054,33.263,44.235,BGW,2915
                ,mosul,city,1.316,36.306,43.147,OSM,2916
                ,al najaf,city,,31.990,44.404,NJF,2917
            ,united arab emirates,country,
                ,fujairah,city,,25.112,56.324,FJR,3176
                ,sir bani yas island,city,,24.284,52.580,XSB,3177
                ,ras al khaimah,city,,25.614,55.939,RKT,3178
                ,abu dhabi,city,0.603,24.433,54.651,AUH,3179
                ,al ain,city,,24.262,55.609,AAN,3180
                ,dubai,city,1.379,25.253,55.364,DXB,3181
            ,bahrain,country,
            ,armenia,country,
                ,yerevan,city,1.102,40.147,44.396,EVN,3233
                ,gyumri,city,0.148,40.750,43.859,LWN,3234
            ,"egypt, arab rep.|egypt",country,
                ,mersa matruh,city,,31.325,27.222,MUH,48
                ,sohag,city,,26.343,31.743,HMB,49
                ,sharm el sheikh,city,,27.977,34.395,SSH,50
                ,marsa alam,city,,25.557,34.584,RMF,51
                ,cairo,city,11.893,30.122,31.406,CAI,52
                ,hurghada,city,,27.178,33.799,HRG,53
                ,asyut,city,0.421,27.046,31.012,ATZ,54
                ,luxor,city,0.609,25.671,32.707,LXR,55
                ,alexandria (eg),city,,30.918,29.696,HBE,56
                ,abu simbel,city,,22.376,31.612,ABS,57
                ,aswan,city,0.313,23.964,32.820,ASW,58
                ,el arish,city,,31.073,33.836,AAC,59
                ,taba,city,,29.588,34.778,TCP,60
        ,south eastern asia,region,
            ,cocos (keeling) islands,country,
                ,cocos islands,city,,-12.188,96.834,CCK,104
            ,malaysia,country,
                ,pangkor,city,,4.245,100.553,PKG,166
                ,bintulu,city,0.152,3.124,113.020,BTU,167
                ,bario,city,,3.734,115.479,BBN,168
                ,tawau,city,0.306,4.320,118.128,TWU,169
                ,kudat,city,,6.923,116.836,KUD,170
                ,tanjung manis,city,,,,TGC,171
                ,lahad datu,city,0.106,5.032,118.324,LDU,172
                ,penang,city,,5.297,100.277,PEN,173
                ,mukah,city,,2.906,112.080,MKM,174
                ,malacca,city,,2.263,102.252,MKZ,175
                ,sandakan,city,0.392,5.901,118.059,SDK,176
                ,kuching,city,0.570,1.485,110.347,KCH,177
                ,kota bharu,city,0.506,6.167,102.293,KBR,178
                ,johor bahru,city,0.875,1.641,103.670,JHB,179
                ,alor setar,city,0.336,6.190,100.398,AOR,180
                ,ipoh,city,0.673,4.568,101.092,IPH,181
                ,kuala lumpur,city,1.448,2.746,101.710,KUL,182
                ,langkawi,city,,6.330,99.729,LGK,183
                ,mulu,city,,4.048,114.805,MZV,184
                ,kuantan,city,0.366,3.775,103.209,KUA,185
                ,kota kinabalu,city,0.528,5.937,116.051,BKI,186
                ,limbang,city,,4.808,115.010,LMN,187
                ,sibu,city,0.204,2.262,111.985,SBW,188
                ,tioman island,city,,2.818,104.160,TOD,189
                ,long banga,city,,,,LBP,190
                ,labuan,city,,5.301,115.250,LBU,191
                ,miri,city,0.228,4.322,113.987,MYY,192
                ,kerteh,city,,4.537,103.427,KTE,193
                ,kuala terengganu,city,0.350,5.383,103.103,TGG,194
            ,cambodia,country,
                ,phnom penh,city,1.466,11.547,104.844,PNH,221
                ,siem reap,city,0.109,13.411,103.813,REP,222
                ,sihanoukville,city,,10.580,103.637,KOS,223
            ,thailand,country,
                ,trat,city,0.022,12.275,102.319,TDX,520
                ,sakon nakhon,city,0.076,17.195,104.119,SNO,521
                ,phrae,city,0.039,18.132,100.165,PRH,522
                ,krabi,city,0.031,8.099,98.986,KBV,523
                ,loei,city,0.035,17.439,101.722,LOE,524
                ,khon kaen,city,0.251,16.467,102.784,KKC,525
                ,chumphon,city,0.086,10.711,99.362,CJM,526
                ,nakhon si thammarat,city,0.232,8.540,99.945,NST,527
                ,udon thani,city,0.247,17.386,102.788,UTH,528
                ,u tapao,city,,12.680,101.005,UTP,529
                ,ko samui,city,,9.548,100.062,USM,530
                ,chiang mai,city,0.397,18.767,98.963,CNX,531
                ,narathiwat,city,0.068,6.520,101.743,NAW,532
                ,trang,city,0.148,7.509,99.617,TST,533
                ,mae sot,city,0.046,16.700,98.545,MAQ,534
                ,surat thani,city,0.158,9.133,99.136,URT,535
                ,hat yai,city,0.318,6.933,100.393,HDY,536
                ,ubon ratchathani,city,0.274,15.251,104.870,UBP,537
                ,bangkok,city,6.704,13.681,100.747,BKK,538
                ,roi et,city,0.039,16.117,103.774,ROI,539
                ,hua hin,city,0.050,12.636,99.951,HHQ,540
                ,nakhon phanom,city,0.055,17.384,104.643,KOP,541
                ,mae hong son,city,0.009,19.301,97.976,HGN,542
                ,lampang,city,0.204,18.271,99.504,LPT,543
                ,buriram,city,,15.229,103.253,BFV,544
                ,chiang rai,city,0.117,19.952,99.883,CEI,545
                ,phitsanulok,city,0.164,16.783,100.279,PHS,546
                ,ranong,city,0.025,9.778,98.586,UNN,547
                ,sukhothai,city,0.010,17.238,99.818,THS,548
                ,phuket,city,0.142,8.113,98.317,HKT,549
                ,nan,city,0.082,18.808,100.783,NNT,550
            ,christmas island,country,
            ,lao pdr|laos,country,
                ,houeisay,city,,20.257,100.437,HOE,571
                ,savannakhet,city,0.085,16.557,104.760,ZVK,572
                ,luang namtha,city,,20.967,101.400,LXG,573
                ,muang xay,city,,20.683,101.994,ODY,574
                ,vientiane,city,0.754,17.988,102.563,VTE,575
                ,phonsavan,city,,19.450,103.158,XKH,576
                ,luang prabang,city,,19.897,102.161,LPQ,577
                ,pakse,city,,15.132,105.781,PKZ,578
            ,philippines,country,
                ,dipolog,city,,8.602,123.342,DPL,588
                ,jolo,city,,6.054,121.011,JOL,589
                ,marinduque,city,,13.361,121.826,MRQ,590
                ,dumaguete,city,,9.334,123.300,DGT,591
                ,tuguegarao,city,0.115,17.643,121.733,TUG,592
                ,cauayan,city,,16.930,121.753,CYZ,593
                ,pagadian,city,0.160,7.831,123.461,PAG,594
                ,virac,city,,13.576,124.206,VRC,595
                ,manila,city,11.100,14.509,121.020,MNL,596
                ,caticlan,city,,11.925,121.954,MPH,597
                ,surigao,city,0.088,9.756,125.481,SUG,598
                ,basco,city,,20.451,121.980,BSO,599
                ,zamboanga,city,,6.922,122.060,ZAM,600
                ,ilo ilo,city,,10.833,122.493,ILO,601
                ,kalibo,city,,11.679,122.376,KLO,602
                ,ozamis,city,,8.179,123.842,OZC,603
                ,coron,city,,12.122,120.100,USU,604
                ,sanga sanga,city,,,,SGS,605
                ,tagbilaran,city,,9.665,123.854,TAG,606
                ,tacloban,city,0.280,11.228,125.028,TAC,607
                ,puerto princesa,city,0.157,9.742,118.759,PPS,608
                ,legaspi,city,,13.158,123.735,LGP,609
                ,general santos,city,0.951,6.058,125.096,GES,610
                ,san jose (ph),city,,12.361,121.047,SJI,611
                ,laoag,city,0.207,18.178,120.532,LAO,612
                ,cotabato,city,0.280,7.165,124.210,CBO,613
                ,del carmen,city,,9.859,126.014,IAO,614
                ,cebu,city,,10.307,123.979,CEB,615
                ,angeles,city,,15.186,120.560,CRK,616
                ,catarman,city,,12.502,124.636,CRM,617
                ,naga,city,,13.585,123.270,WNP,618
                ,davao,city,1.402,7.126,125.646,DVO,619
                ,butuan,city,0.191,8.951,125.479,BXU,620
                ,masbate,city,,12.370,123.630,MBT,621
                ,bacolod,city,0.949,10.776,123.015,BCD,622
                ,camiguin,city,,9.254,124.707,CGM,623
                ,cagayan de oro,city,1.122,8.612,124.456,CGY,624
            ,myanmar|burma,country,
                ,nay pyi taw,city,0.930,19.624,96.201,NYT,866
                ,bagan,city,,21.179,94.930,NYU,867
                ,lashio,city,,22.978,97.752,LSH,868
                ,kyaukpyu,city,0.004,19.426,93.535,KYP,869
                ,kalemyo,city,,23.189,94.051,KMV,870
                ,mawlamyine,city,0.439,16.445,97.661,MNU,871
                ,homalin,city,,24.900,94.914,HOX,872
                ,sittwe,city,0.179,20.133,92.873,AKY,873
                ,kawthaung,city,,10.049,98.538,KAW,874
                ,yangon,city,,16.907,96.133,RGN,875
                ,dawei,city,0.146,14.104,98.204,TVY,876
                ,bhamo,city,,24.269,97.246,BMO,877
                ,myeik,city,0.267,12.440,98.621,MGZ,878
                ,kengtung,city,,21.302,99.636,KET,879
                ,henzada,city,,,,HEB,880
                ,heho,city,,20.747,96.792,HEH,881
                ,putao,city,,27.330,97.426,PBU,882
                ,myitkyina,city,0.139,25.384,97.352,MYT,883
                ,mandalay,city,1.300,21.702,95.978,MDL,884
                ,thandwe,city,,18.461,94.300,SNW,885
                ,tachilek,city,,20.484,99.935,THL,886
            ,vietnam,country,
                ,dalat,city,,11.750,108.367,DLI,1120
                ,tamky,city,,15.403,108.706,VCL,1121
                ,con dao,city,,8.732,106.633,VCS,1122
                ,haiphong,city,1.969,20.819,106.725,HPH,1123
                ,phuquoc,city,,10.170,103.993,PQC,1124
                ,hanoi,city,4.378,21.221,105.807,HAN,1125
                ,dien bien phu,city,,21.397,103.008,DIN,1126
                ,dong hoi,city,0.189,17.515,106.591,VDH,1127
                ,pleiku,city,0.143,14.005,108.017,PXU,1128
                ,ho chi minh city,city,5.314,10.819,106.652,SGN,1129
                ,hue,city,0.950,16.402,107.703,HUI,1130
                ,ca mau,city,0.357,9.178,105.178,CAH,1131
                ,ban me thuot,city,,12.668,108.120,BMV,1132
                ,tuyhoa,city,,13.050,109.334,TBB,1133
                ,quinhon,city,,13.955,109.042,UIH,1134
                ,rachgia,city,,9.958,105.132,VKG,1135
                ,cantho,city,,10.085,105.712,VCA,1136
                ,nha trang,city,0.412,11.998,109.219,CXR,1137
                ,vinh city,city,,18.738,105.671,VII,1138
                ,da nang,city,,16.044,108.199,DAD,1139
            ,indonesia,country,
                ,tanjung redeb,city,,2.155,117.432,BEJ,1233
                ,tana toraja,city,,-3.045,119.822,TTR,1234
                ,lhok seumawe,city,,5.227,96.950,LSW,1235
                ,ternate,city,0.188,0.831,127.381,TTE,1236
                ,tanjung pandan,city,,-2.746,107.755,TJQ,1237
                ,denpasar,city,0.732,-8.748,115.167,DPS,1238
                ,pontianak,city,0.607,-0.151,109.404,PNK,1239
                ,batam,city,,1.121,104.119,BTH,1240
                ,banda aceh,city,0.514,5.523,95.421,BTJ,1241
                ,fak fak,city,,-2.920,132.267,FKQ,1242
                ,padang,city,0.855,-0.787,100.281,PDG,1243
                ,aek godang,city,,1.400,99.430,AEG,1244
                ,baubau,city,0.024,-5.487,122.569,BUW,1245
                ,poso,city,0.047,-1.417,120.658,PSJ,1246
                ,maumere,city,0.104,-8.641,122.237,MOF,1247
                ,semarang,city,1.396,-6.973,110.375,SRG,1248
                ,samarinda,city,0.592,-0.485,117.157,SRI,1249
                ,bandar lampung,city,0.865,-5.241,105.176,TKG,1250
                ,praya,city,0.035,-8.757,116.277,LOP,1251
                ,malang,city,0.805,-7.927,112.715,MLG,1252
                ,melangguane,city,,4.007,126.673,MNA,1253
                ,surabaya,city,2.845,-7.380,112.787,SUB,1254
                ,nabire,city,0.044,-3.368,135.496,NBX,1255
                ,oksibil,city,,-4.907,140.628,OKL,1256
                ,kolaka,city,,,,PUM,1257
                ,utarom,city,,-3.645,133.696,KNG,1258
                ,kau,city,,1.185,127.896,KAZ,1259
                ,ende,city,0.077,-8.849,121.661,ENE,1260
                ,long apung,city,,1.704,114.970,LPU,1261
                ,balikpapan,city,0.446,-1.268,116.894,BPN,1262
                ,gunung sitoli,city,,1.166,97.705,GNS,1263
                ,tahuna,city,,3.683,125.528,NAH,1264
                ,saumlaki,city,,-7.989,131.306,SXK,1265
                ,tarakan,city,0.193,3.327,117.569,TRK,1266
                ,mamuju,city,,,,MJU,1267
                ,jambi,city,0.457,-1.638,103.644,DJB,1268
                ,jayapura,city,0.169,-2.577,140.516,DJJ,1269
                ,kotabaru,city,,,,KBU,1270
                ,merauke,city,0.034,-8.520,140.418,MKQ,1271
                ,manokwari,city,0.075,-0.892,134.049,MKW,1272
                ,pangkalpinang,city,0.126,-2.162,106.139,PGK,1273
                ,bima,city,,-8.540,118.687,BMU,1274
                ,langgur,city,,-5.662,132.731,LUV,1275
                ,luwuk,city,0.048,-1.039,122.772,LUW,1276
                ,gorontalo,city,0.365,0.637,122.850,GTO,1277
                ,waingapu,city,0.049,-9.669,120.302,WGP,1278
                ,tambolaka,city,,-9.410,119.244,TMC,1279
                ,kendari,city,0.165,-4.082,122.418,KDI,1280
                ,kerinci,city,,-2.093,101.468,KRC,1281
                ,dobo,city,,-5.772,134.212,DOB,1282
                ,wamena,city,,-4.103,138.957,WMX,1283
                ,sorong,city,0.126,-0.894,131.287,SOQ,1284
                ,ambon,city,0.356,-3.710,128.089,AMQ,1285
                ,makassar,city,1.262,-5.062,119.554,UPG,1286
                ,bakelalan,city,,3.974,115.618,BKM,1287
                ,bengkulu,city,0.427,-3.864,102.339,BKS,1288
                ,cut nyak dien,city,,4.250,96.217,MEQ,1289
                ,medan,city,2.115,3.559,98.671,MES,1290
                ,tanjung pinang,city,,0.923,104.532,TNJ,1291
                ,natuna,city,,3.909,108.388,NTX,1292
                ,datadawai,city,,0.811,114.531,DTD,1293
                ,sampit,city,0.093,-2.499,112.975,SMQ,1294
                ,manado,city,0.452,1.549,124.926,MDC,1295
                ,kupang,city,0.282,-10.172,123.671,KOE,1296
                ,atambua,city,,,,ABU,1297
                ,ketapang,city,,-1.817,109.963,KTG,1298
                ,putussibau,city,,0.836,112.937,PSU,1299
                ,labuan bajo,city,,-8.487,119.889,LBJ,1300
                ,pekanbaru,city,0.799,0.461,101.445,PKU,1301
                ,palangkaraya,city,0.148,-2.225,113.943,PKY,1302
                ,pangkalanbun,city,,-2.705,111.673,PKN,1303
                ,biak,city,0.104,-1.190,136.108,BIK,1304
                ,palu,city,0.612,-0.919,119.910,PLW,1305
                ,palembang,city,1.749,-2.898,104.700,PLM,1306
                ,irarutu,city,,-2.532,133.439,BXB,1307
                ,yogyakarta,city,0.637,-7.788,110.432,JOG,1308
                ,tembagapura,city,,-4.528,136.887,TIM,1309
                ,nunukan,city,,4.133,117.667,NNX,1310
                ,sintang,city,,0.064,111.473,SQG,1311
                ,bandung,city,2.394,-6.901,107.576,BDO,1312
                ,banjarmasin,city,0.604,-3.442,114.763,BDJ,1313
                ,jakarta,city,9.125,-6.126,106.656,CGK,1314
            ,timor leste,country,
                ,dili,city,0.234,-8.546,125.526,DIL,1427
            ,brunei,country,
                ,bandar seri begawan,city,0.296,4.944,114.928,BWN,1789
            ,singapore,country,
        ,eastern asia,region,
            ,"korea, dem. rep.|korea, north",country,
                ,pyongyang,city,3.300,39.224,125.670,FNJ,200
            ,china,country,
                ,hailar,city,,49.205,119.825,HLD,314
                ,xuzhou,city,,34.059,117.555,XUZ,316
                ,bayannur,city,,40.926,107.743,RLK,317
                ,xinyuan,city,,43.432,83.379,NLT,320
                ,hami,city,,42.841,93.669,HMI,321
                ,tianjin,city,,39.124,117.346,TSN,322
                ,burqin,city,,48.222,86.996,KJI,324
                ,chongqing,city,,29.719,106.642,CKG,325
                ,daocheng,city,,29.323,100.053,DCY,326
                ,baise,city,,23.721,106.960,AEB,331
                ,jiuzhaigou,city,,32.853,103.682,JZH,333
                ,wanzhou,city,,30.802,108.433,WXN,334
                ,mohe,city,,52.913,122.430,OHE,335
                ,yichun (jiangxi),city,,27.802,114.306,YIC,341
                ,wuyishan,city,,27.702,118.001,WUS,344
                ,ordos,city,,39.490,109.861,DSN,349
                ,dongying,city,,37.509,118.788,DOY,352
                ,erenhot,city,,43.422,112.097,ERL,356
                ,enshi,city,,30.320,109.485,ENH,360
                ,yan'an,city,,36.637,109.554,ENY,361
                ,bole,city,,44.895,82.300,BPL,364
                ,guyuan,city,,36.079,106.217,GYU,366
                ,zhoushan,city,,29.934,122.362,HSN,370
                ,yichun (heilongjiang),city,,47.752,129.019,LDS,374
                ,lijiang,city,,26.680,100.246,LJG,375
                ,deqen,city,,27.794,99.677,DIG,377
                ,lianyungang,city,,34.572,118.874,LYG,380
                ,yining,city,,43.956,81.330,YIN,383
                ,xiahe,city,,34.810,102.645,GXH,384
                ,yushu,city,,32.836,97.036,YUS,390
                ,qianjiang,city,,29.513,108.831,JIQ,393
                ,nyingchi,city,,29.303,94.335,LZY,396
                ,jinghong,city,,21.974,100.760,JHG,399
                ,aershan,city,,47.311,119.912,YIE,401
                ,yichang,city,,30.557,111.480,YIH,402
                ,yiwu,city,,29.345,120.032,YIW,403
                ,zhangjiajie,city,,29.103,110.443,DYG,404
                ,shiquande,city,,32.100,80.053,NGQ,409
                ,shanghai,city,,31.143,121.805,PVG,412
                ,mangshi,city,,24.401,98.532,LUM,414
                ,lincang,city,,23.738,100.025,LNJ,416
                ,panzhihua,city,,26.540,101.799,PZI,417
                ,nanchong,city,,30.795,106.163,NAO,418
                ,beijing,city,,40.080,116.585,PEK,420
                ,tengchong,city,,24.938,98.486,TCZ,421
                ,chizhou,city,,30.740,117.686,JUH,422
                ,jiagedaqi,city,,50.371,124.118,JGD,426
                ,huangshan,city,,29.733,118.256,TXN,443
                ,kangding,city,,30.157,101.735,KGT,444
                ,liping,city,,26.322,109.150,HZH,446
                ,meixian,city,,24.350,116.133,MXZ,447
                ,huai'an,city,,33.791,119.125,HIA,449
                ,bijie,city,,27.267,105.472,BFJ,452
                ,tianshui,city,,34.559,105.860,THQ,462
                ,huaihua,city,,27.441,109.700,HJJ,463
                ,wenshan,city,,,,WNH,464
                ,zhongwei,city,,37.573,105.154,ZHY,466
                ,xilinhot,city,,43.916,115.964,XIL,468
                ,hong kong,city,,22.309,113.915,HKG,473
                ,kashi,city,,39.543,76.020,KHG,474
                ,libo,city,,25.453,107.962,LLB,478
                ,yuncheng,city,,35.116,111.031,YCU,480
                ,datong,city,,40.060,113.482,DAT,486
                ,dazhou,city,,31.130,107.430,DAX,487
                ,anhui,state,
                    ,hefei,city,2.035,31.780,117.298,HFE,438
                    ,anqing,city,0.580,30.582,117.050,AQG,471
                ,fujian,state,
                    ,fuzhou,city,2.606,25.935,119.663,FOC,376
                    ,quanzhou,city,1.463,24.796,118.590,JJN,389
                    ,xiamen,city,2.519,24.544,118.128,XMN,430
                    ,longyan,city,0.368,25.675,116.747,LCX,467
                ,gansu,state,
                    ,dunhuang,city,0.140,40.161,94.809,DNH,340
                    ,lanzhou,city,2.561,36.515,103.620,LHW,343
                    ,jinchang,city,0.144,38.542,102.348,JIC,392
                    ,zhangye,city,0.231,38.802,100.675,YZY,410
                    ,jiayuguan,city,0.148,39.857,98.341,JGN,425
                ,guangdong,state,
                    ,shantou,city,1.601,23.552,116.503,SWA,363
                    ,guangzhou,city,8.829,23.392,113.299,CAN,455
                    ,zhanjiang,city,1.590,21.214,110.358,ZHA,469
                ,guizhou,state,
                    ,zunyi,city,0.849,27.590,107.001,ZYI,330
                    ,anshun,city,0.849,26.261,105.873,AVA,337
                    ,tongren,city,0.118,27.883,109.309,TEN,338
                    ,xingyi,city,0.816,25.086,104.959,ACX,437
                    ,guiyang,city,3.662,26.538,106.801,KWE,460
                ,hainan,state,
                    ,sanya,city,0.363,18.303,109.412,SYX,373
                    ,haikou,city,2.046,19.935,110.459,HAK,475
                ,hebei,state,
                    ,tangshan,city,1.879,,,TVS,332
                    ,handan,city,1.631,36.526,114.426,HDG,408
                    ,qinhuangdao,city,1.003,39.968,119.731,SHP,411
                    ,shijiazhuang,city,2.417,38.281,114.697,SJW,440
                ,heilongjiang,state,
                    ,daqing,city,1.693,46.746,125.141,DQA,329
                    ,jiamusi,city,1.020,46.843,130.465,JMU,336
                    ,jixi,city,0.965,45.293,131.193,JXA,357
                    ,harbin,city,3.621,45.623,126.250,HRB,358
                    ,heihe,city,0.109,50.172,127.309,HEK,433
                    ,mudanjiang,city,1.244,44.524,129.569,MDG,436
                    ,qiqihar,city,1.641,47.240,123.918,NDG,488
                ,henan,state,
                    ,luoyang,city,1.715,34.741,112.388,LYA,381
                    ,nanyang,city,1.944,32.981,112.615,NNY,432
                    ,zhengzhou,city,2.636,34.520,113.841,CGO,481
                ,hubei,state,
                    ,xiangyang,city,1.069,32.151,112.291,XFN,353
                    ,wuhan|hubei,city,7.243,30.784,114.208,WUH,477
                ,hunan,state,
                    ,changsha,city,2.604,28.189,113.220,CSX,456
                    ,yongzhou,city,1.000,26.339,111.610,LLF,479
                    ,changde,city,1.469,28.919,111.640,CGD,482
                ,jiangsu,state,
                    ,wuxi,city,1.749,31.494,120.429,WUX,346
                    ,changzhou,city,1.327,31.920,119.779,CZX,362
                    ,yangzhou,city,0.540,32.563,119.720,YTY,395
                    ,taizhou,city,0.612,28.562,121.429,HYN,434
                    ,yancheng,city,0.839,33.426,120.203,YNZ,442
                    ,nanjing,city,3.679,31.742,118.862,NKG,445
                    ,nantong,city,0.947,,,NTG,448
                ,jiangxi,state,
                    ,jiujiang,city,0.546,29.477,115.801,JIU,318
                    ,ji'an,city,0.520,26.857,114.737,JGS,427
                    ,jingdezhen,city,0.457,29.339,117.176,JDZ,435
                    ,ganzhou,city,1.500,25.853,114.779,KOW,450
                    ,nanchang,city,2.350,28.865,115.900,KHN,472
                ,jilin,state,
                    ,baishan,city,0.330,42.067,127.602,NBS,339
                    ,yanji,city,0.489,42.883,129.451,YNJ,441
                    ,changchun,city,3.183,43.996,125.685,CGQ,483
                ,liaoning,state,
                    ,jinzhou,city,0.956,41.101,121.062,JNZ,311
                    ,chaoyang,city,0.470,41.538,120.435,CHG,319
                    ,dalian,city,3.167,38.966,121.539,DLC,394
                    ,anshan,city,1.639,41.105,122.854,AOG,406
                    ,shenyang,city,4.787,41.640,123.483,SHE,413
                    ,dandong,city,0.870,40.025,124.286,DDG,428
                ,qinghai,state,
                    ,golmud,city,0.107,36.401,94.786,GOQ,369
                    ,xining,city,1.048,36.528,102.043,XNN,439
                ,shaanxi,state,
                    ,xi'an,city,4.009,34.447,108.752,XIY,348
                ,shandong,state,
                    ,jining,city,1.186,35.293,116.347,JNG,312
                    ,weifang,city,1.553,36.647,119.119,WEF,327
                    ,weihai,city,0.560,37.187,122.229,WEH,328
                    ,yantai,city,2.116,37.402,121.372,YNT,378
                    ,linyi,city,2.082,35.046,118.412,LYI,382
                    ,qingdao,city,2.866,36.266,120.374,TAO,391
                    ,jinan,city,2.798,36.857,117.216,TNA,476
                ,shanxi,state,
                    ,taiyuan,city,2.913,37.747,112.628,TYN,453
                    ,changzhi,city,0.706,36.248,113.126,CIH,485
                ,sichuan,state,
                    ,chengdu,city,4.123,30.579,103.947,CTU,315
                    ,yibin,city,0.902,28.801,104.545,YBP,323
                    ,guangyuan,city,0.437,32.391,105.702,GYS,367
                    ,luzhou,city,1.537,28.852,105.393,LZO,398
                    ,xichang,city,0.380,27.989,102.184,XIC,400
                    ,mianyang,city,1.396,31.428,104.741,MIG,405
                ,yunnan,state,
                    ,baoshan,city,1.000,25.053,99.168,BSD,354
                    ,simao,city,0.163,22.793,100.959,SYM,371
                    ,dali,city,0.157,25.649,100.319,DLU,388
                    ,zhaotong,city,0.809,27.326,103.755,ZAT,419
                    ,kunming,city,2.931,25.102,102.929,KMG,458
                ,zhejiang,state,
                    ,ningbo,city,1.923,29.827,121.462,NGB,407
                    ,quzhou,city,0.370,28.966,118.899,JUZ,423
                    ,fuyang,city,0.771,32.882,115.734,FUG,454
                    ,hangzhou,city,3.007,30.229,120.434,HGH,457
                    ,wenzhou,city,2.350,27.912,120.852,WNZ,465
                ,guangxi,state,
                    ,wuzhou,city,0.442,23.457,111.248,WUZ,345
                    ,yulin,city,1.127,38.360,109.591,UYN,387
                    ,liuzhou,city,1.497,24.207,109.391,LZH,397
                    ,beihai,city,0.729,21.539,109.294,BHY,451
                    ,guilin,city,0.987,25.218,110.039,KWL,461
                    ,nanning,city,2.167,22.608,108.172,NNG,470
                ,inner mongolia,state,
                    ,ulanhot,city,0.242,46.195,122.008,HLH,313
                    ,wuhai,city,0.218,39.793,106.799,WUA,347
                    ,baotou,city,2.036,40.560,109.997,BAV,355
                    ,manzhouli,city,0.094,49.567,117.330,NZH,359
                    ,tongliao,city,0.884,43.557,122.200,TGO,368
                    ,hohhot,city,1.726,40.851,111.824,HET,429
                    ,chifeng,city,1.277,42.235,118.908,CIF,484
                ,ningxia,state,
                    ,yinchuan,city,0.991,,,INC,350
                ,tibet,state,
                    ,xigaze,city,0.080,29.352,89.311,RKZ,342
                    ,qamdo,city,0.100,30.554,97.108,BPX,365
                    ,lhasa|tibet,city,0.220,29.298,90.912,LXA,372
                ,xinjiang,state,
                    ,korla,city,0.206,41.698,86.129,KRL,310
                    ,aksu,city,0.340,41.263,80.292,AKU,351
                    ,urumqi,city,2.151,43.907,87.474,URC,379
                    ,kuqa,city,0.111,41.678,82.873,KCA,385
                    ,hotan,city,0.262,37.039,79.865,HTN,386
                    ,turpan,city,0.255,43.031,89.099,TLQ,415
                    ,tacheng,city,0.050,46.673,83.341,TCG,424
                    ,karamay,city,0.109,45.467,84.953,KRY,431
                    ,altay,city,0.142,47.750,88.086,AAT,459
                ,hong kong,state,
                ,macao|macau,state,
                ,beijing,state,
                ,chongqing,state,
                ,shanghai,state,
                ,tianjin,state,
            ,mongolia,country,
                ,bayankhongor,city,,46.163,100.704,BYN,845
                ,dalanzadgad,city,0.015,43.592,104.430,DLZ,846
                ,choibalsan,city,,48.136,114.646,COQ,847
                ,khatgal,city,,,,HTM,848
                ,altai,city,,46.376,96.221,LTI,849
                ,khovd,city,,47.954,91.628,HVD,850
                ,tosontsengel,city,,,,TNZ,851
                ,moron,city,,49.663,100.099,MXV,852
                ,ulaangom,city,0.036,50.067,91.938,ULO,853
                ,olgii,city,,48.993,89.923,ULG,854
                ,uliastai,city,,47.709,96.526,ULZ,855
                ,ulaanbaatar,city,0.885,47.843,106.767,ULN,856
            ,"korea, rep.|korea, south|south korea",country,
                ,won ju,city,,37.441,127.964,WJU,2798
                ,muan,city,,34.991,126.383,MWX,2799
                ,cheongju,city,0.775,36.717,127.499,CJJ,2800
                ,jeju,city,0.408,33.511,126.493,CJU,2801
                ,yangyang,city,,38.061,128.669,YNY,2802
                ,seoul,city,9.796,37.469,126.451,ICN,2803
                ,daegu,city,2.460,35.897,128.655,TAE,2804
                ,gunsan,city,,35.904,126.616,KUV,2805
                ,pusan,city,,35.180,128.938,PUS,2806
                ,yeosu,city,0.342,34.842,127.617,RSU,2807
                ,gwangju,city,1.440,35.123,126.805,KWJ,2808
                ,ulsan,city,1.061,35.593,129.352,USN,2809
            ,taiwan|taiwan*,country,
                ,taichung cingcyuangang,city,,24.265,120.621,RMQ,2822
                ,kinmen,city,,24.428,118.359,KNH,2823
                ,taitung,city,0.175,22.755,121.102,TTT,2824
                ,taipei,city,6.900,25.078,121.233,TPE,2825
                ,hualien,city,0.350,24.023,121.618,HUN,2826
                ,magong,city,0.056,23.569,119.628,MZG,2827
                ,kaohsiung,city,2.769,22.577,120.350,KHH,2828
            ,japan,country,
                ,odate,city,,40.192,140.371,ONJ,3101
                ,new ishigaki,city,,24.396,124.245,ISG,3102
                ,oshima,city,,34.782,139.360,OIM,3103
                ,oita,city,0.449,33.479,131.737,OIT,3104
                ,hanamaki,city,,39.429,141.135,HNA,3105
                ,tokyo,city,35.676,35.552,139.780,HND,3106
                ,miyazaki,city,0.324,31.877,131.449,KMI,3107
                ,komatsu,city,,36.395,136.407,KMQ,3108
                ,tottori,city,0.154,35.530,134.167,TTJ,3109
                ,okayama,city,0.866,34.757,133.855,OKJ,3110
                ,asahikawa,city,0.357,43.671,142.447,AKJ,3111
                ,miyako,city,,24.783,125.295,MMY,3112
                ,matsumoto,city,,36.167,137.923,MMJ,3113
                ,memambetsu,city,,43.881,144.164,MMB,3114
                ,kagoshima,city,0.555,31.803,130.719,KOJ,3115
                ,kushiro,city,,43.041,144.193,KUH,3116
                ,yonaguni jima,city,,24.467,122.978,OGN,3117
                ,rishiri,city,,45.242,141.186,RIS,3118
                ,hachijojima,city,,33.115,139.786,HAC,3119
                ,shonai,city,,38.812,139.787,SYO,3120
                ,shizuoka,city,0.702,,,FSZ,3121
                ,sendai,city,2.250,38.140,140.917,SDJ,3122
                ,kochi (jp),city,,33.546,133.669,KCZ,3123
                ,kume jima,city,,26.364,126.714,UEO,3124
                ,tsushima,city,,34.285,129.331,TSJ,3125
                ,tokushima,city,0.444,34.133,134.607,TKS,3126
                ,tokyo narita,city,,35.765,140.386,NRT,3127
                ,aomori,city,0.298,40.735,140.691,AOJ,3128
                ,nagasaki,city,0.435,32.917,129.914,NGS,3129
                ,nakashibetsu,city,,43.577,144.960,SHB,3130
                ,shirahama,city,,33.662,135.364,SHM,3131
                ,akita,city,0.320,39.616,140.219,AXT,3132
                ,iwakuni,city,,34.144,132.236,IWK,3133
                ,masuda,city,,34.676,131.790,IWJ,3134
                ,okinawa,city,,26.196,127.646,OKA,3135
                ,oki,city,,36.181,133.325,OKI,3136
                ,matsuyama,city,0.534,33.827,132.700,MYJ,3137
                ,miyakejima,city,,34.074,139.560,MYE,3138
                ,kitakyushu,city,,33.846,131.035,KKJ,3139
                ,fukushima,city,0.294,37.227,140.431,FKS,3140
                ,nagoya,city,3.230,34.858,136.805,NGO,3141
                ,wajima,city,,37.293,136.962,NTQ,3142
                ,toyama,city,0.333,36.648,137.188,TOY,3143
                ,hiroshima,city,2.045,34.436,132.919,HIJ,3144
                ,takamatsu,city,0.334,34.214,134.016,TAK,3145
                ,fukue,city,,32.666,128.833,FUJ,3146
                ,fukuoka,city,2.792,33.586,130.451,FUK,3147
                ,wakkanai,city,,45.404,141.801,WKJ,3148
                ,amami,city,,28.431,129.713,ASJ,3149
                ,izumo,city,,35.414,132.890,IZO,3150
                ,osaka,city,11.294,34.427,135.244,KIX,3151
                ,niigata,city,0.570,37.956,139.121,KIJ,3152
                ,kumamoto,city,0.718,32.837,130.855,KMJ,3153
                ,iki,city,,33.749,129.785,IKI,3154
                ,obihiro,city,,42.733,143.217,OBO,3155
                ,monbetsu,city,,44.304,143.404,MBE,3156
                ,yamagata,city,0.272,38.412,140.371,GAJ,3157
                ,sapporo,city,2.544,42.775,141.692,CTS,3158
                ,hakodate,city,0.303,41.770,140.822,HKD,3159
                ,misawa,city,,40.703,141.368,MSJ,3160
        ,central asia,region,
            ,kazakhstan,country,
                ,ust kamenogorsk,city,,50.037,82.494,UKK,656
                ,aktau,city,,43.860,51.092,SCO,657
                ,kyzylorda,city,,44.707,65.592,KZO,658
                ,aktobe,city,,50.246,57.207,AKX,659
                ,pavlodar,city,0.329,52.195,77.074,PWQ,660
                ,zaysan,city,0.018,,,SZI,661
                ,astana,city,,51.022,71.467,TSE,662
                ,atyrau,city,0.183,47.122,51.821,GUW,663
                ,uralsk,city,,51.151,51.543,URA,664
                ,kostanay,city,,53.207,63.550,KSN,665
                ,zhezkazgan,city,,47.708,67.733,DZN,666
                ,karaganda,city,,49.671,73.334,KGF,667
                ,almaty,city,1.209,43.352,77.040,ALA,668
                ,kokshetau,city,0.129,53.329,69.595,KOV,669
                ,taraz,city,0.358,42.854,71.304,DMB,670
                ,semey,city,0.311,50.351,80.234,PLX,671
                ,petropavlovsk (kz),city,,54.775,69.184,PPK,672
                ,shymkent,city,0.465,42.364,69.479,CIT,673
            ,turkmenistan,country,
                ,ashgabat,city,0.728,37.987,58.361,ASB,833
            ,tajikistan,country,
                ,qurghonteppa,city,0.312,37.866,68.865,KQT,974
                ,dushanbe,city,1.086,38.543,68.825,DYU,975
                ,kulob,city,0.115,37.988,69.805,TJU,976
                ,khujand,city,0.438,40.215,69.695,LBD,977
            ,uzbekistan,country,
                ,zarafshan,city,,41.614,64.233,AFS,2836
                ,namangan,city,0.750,40.985,71.557,NMA,2837
                ,nukus,city,0.230,42.488,59.623,NCU,2838
                ,karshi,city,,38.834,65.922,KSQ,2839
                ,andizhan,city,,40.728,72.294,AZN,2840
                ,tashkent,city,2.184,41.258,69.281,TAS,2841
                ,samarkand,city,0.708,39.701,66.984,SKD,2842
                ,navoi,city,,40.117,65.171,NVI,2843
                ,termez,city,,37.287,67.310,TMJ,2844
                ,bukhara,city,0.319,39.775,64.483,BHK,2845
                ,fergana,city,,40.359,71.745,FEG,2846
                ,urgench,city,,41.584,60.642,UGC,2847
            ,kyrgyzstan,country,
                ,bishkek,city,0.837,43.061,74.478,FRU,3161
                ,osh,city,0.391,40.609,72.793,OSS,3162
    ,europe,continent,
        ,eastern europe,region,
            ,belarus,country,
                ,gomel,city,,52.527,31.017,GME,902
                ,grodno,city,,53.602,24.054,GNA,903
                ,brest (by),city,,52.108,23.898,BQT,904
                ,minsk,city,1.805,53.882,28.031,MSQ,905
            ,moldova,country,
                ,chisinau,city,0.688,46.928,28.931,KIV,1441
            ,russian federation|russia,country,
                ,nadym,city,0.046,65.481,72.699,NYM,1796
                ,grozny,city,,,,GRV,1797
                ,nojabrsk,city,,63.183,75.270,NOJ,1798
                ,tyumen,city,,57.190,65.324,TJM,1799
                ,novokuznetsk,city,0.540,53.811,86.877,NOZ,1800
                ,nogliki,city,0.010,51.780,143.139,NGK,1801
                ,ust kut,city,,56.857,105.730,UKX,1802
                ,usinsk,city,,66.005,57.367,USK,1803
                ,yoshkar ola,city,0.324,56.701,47.905,JOK,1804
                ,mineralnye vody,city,,44.225,43.082,MRV,1805
                ,veliky ustyug,city,,60.788,46.260,VUS,1806
                ,khanty mansiysk,city,0.068,61.028,69.086,HMA,1807
                ,novy urengoy,city,,66.069,76.520,NUX,1808
                ,bratsk,city,0.246,56.371,101.698,BTK,1809
                ,chokurdakh,city,0.003,70.623,147.902,CKH,1810
                ,magnitogorsk,city,0.413,53.393,58.756,MQF,1811
                ,khonuu,city,,66.451,143.262,MQJ,1812
                ,varandey,city,,,,VRI,1813
                ,bor,city,,61.590,89.994,TGP,1814
                ,okha,city,0.027,,,OHH,1815
                ,sakkyryr,city,,67.792,130.394,SUK,1816
                ,suntar,city,0.009,62.185,117.635,SUY,1817
                ,nizhnekamsk,city,0.234,55.565,52.092,NBC,1818
                ,aldan,city,0.024,58.603,125.409,ADH,1819
                ,elista,city,0.107,46.374,44.331,ESL,1820
                ,syktyvkar,city,0.231,61.647,50.845,SCW,1821
                ,murmansk,city,0.319,68.782,32.751,MMK,1822
                ,yerbogachen,city,,61.275,108.030,ERG,1823
                ,turukhansk,city,0.005,65.797,87.935,THX,1824
                ,stavropol,city,,45.109,42.113,STW,1825
                ,samara,city,1.137,53.505,50.164,KUF,1826
                ,sashylakh,city,,71.928,114.080,SYS,1827
                ,neryungri,city,0.066,56.914,124.914,NER,1828
                ,saratov,city,0.843,51.565,46.047,RTW,1829
                ,srednekolymsk,city,0.003,67.481,153.736,SEK,1830
                ,yuzhno sakhalinsk,city,0.176,46.889,142.718,UUS,1831
                ,ulan ude,city,0.360,51.808,107.438,UUD,1832
                ,bugulma,city,,54.640,52.802,UUA,1833
                ,evensk,city,0.002,,,SWV,1834
                ,taganrog,city,0.279,47.198,38.849,TGK,1835
                ,nizhny novgorod,city,,56.230,43.784,GOJ,1836
                ,tarko sale,city,,64.931,77.818,TQL,1837
                ,gorno altaysk,city,0.060,51.967,85.833,RGK,1838
                ,leshukonskoye,city,,64.896,45.723,LDG,1839
                ,kazan,city,,55.606,49.279,KZN,1840
                ,penza,city,0.513,53.111,45.021,PEZ,1841
                ,perm,city,,57.915,56.021,PEE,1842
                ,norilsk,city,,69.311,87.332,NSK,1843
                ,igrim,city,0.010,,,IRM,1844
                ,nalchik,city,,43.513,43.637,NAL,1845
                ,bogorodskoye,city,,52.380,140.448,BQG,1846
                ,zonalnoye,city,,,,ZZO,1847
                ,blagoveschensk,city,,50.425,127.412,BQS,1848
                ,yekaterinburg,city,1.313,56.743,60.803,SVX,1849
                ,petrozavodsk,city,0.265,61.885,34.155,PES,1850
                ,komsomolsk na amure,city,,50.409,136.934,KXK,1851
                ,chita,city,0.308,52.026,113.306,HTA,1852
                ,bodaybo,city,0.016,57.866,114.243,ODO,1853
                ,olekminsk,city,0.010,60.397,120.471,OLZ,1854
                ,st petersburg,city,,59.800,30.263,LED,1855
                ,surgut,city,0.400,61.344,73.402,SGC,1856
                ,mirny,city,,62.535,114.039,MJZ,1857
                ,orenburg,city,0.550,51.796,55.457,REN,1858
                ,vladivostok,city,0.587,43.399,132.148,VVO,1859
                ,shakhtersk,city,,49.190,142.083,EKS,1860
                ,ufa,city,1.018,54.557,55.874,UFA,1861
                ,anadyr,city,,64.735,177.741,DYR,1862
                ,naryan mar,city,,67.640,53.122,NNM,1863
                ,dikson,city,0.001,73.518,80.380,DKS,1864
                ,sovetsky,city,,61.327,63.602,OVS,1865
                ,uray,city,0.040,60.103,64.827,URJ,1866
                ,kursk,city,0.409,51.751,36.296,URS,1867
                ,polyarny,city,,66.400,112.030,PYJ,1868
                ,kotlas,city,0.060,61.236,46.697,KSZ,1869
                ,novosibirsk,city,1.389,55.013,82.651,OVB,1870
                ,ust tsilma,city,,65.437,52.200,UTS,1871
                ,zyryanka,city,0.004,65.749,150.889,ZKP,1872
                ,kemerovo,city,0.477,55.270,86.107,KEJ,1873
                ,krasnoyarsk,city,0.925,56.173,92.493,KJA,1874
                ,pevek,city,0.005,69.783,170.597,PWE,1875
                ,yakutsk,city,0.236,62.093,129.771,YKS,1876
                ,ivanovo,city,0.421,56.939,40.941,IWA,1877
                ,nyagan,city,,62.110,65.615,NYA,1878
                ,igarka,city,0.007,67.437,86.622,IAA,1879
                ,yaroslavl,city,,57.561,40.157,IAR,1880
                ,saransk,city,0.303,54.125,45.212,SKX,1881
                ,khabarovsk,city,0.579,48.528,135.188,KHV,1882
                ,krasnodar,city,0.650,45.035,39.171,KRR,1883
                ,vorkuta,city,0.080,67.489,63.993,VKT,1884
                ,ukhta,city,0.102,63.567,53.805,UCT,1885
                ,chersky,city,,68.741,161.338,CYX,1886
                ,kirovsk,city,0.030,67.463,33.588,KVK,1887
                ,yuzhno kurilsk,city,,43.958,145.683,DEE,1888
                ,amderma,city,0.000,69.763,61.556,AMV,1889
                ,moscow,city,10.452,55.409,37.906,DME,1890
                ,magadan,city,0.095,59.911,150.720,GDX,1891
                ,gelendzhik,city,0.056,44.582,38.012,GDZ,1892
                ,kogalym,city,,62.190,74.534,KGP,1893
                ,berezovo,city,,63.921,65.031,EZV,1894
                ,kaliningrad,city,0.435,54.890,20.593,KGD,1895
                ,orsk,city,0.247,51.072,58.596,OSW,1896
                ,vladikavkaz,city,0.365,43.205,44.607,OGZ,1897
                ,barnaul,city,0.600,53.364,83.538,BAX,1898
                ,kirensk,city,0.013,57.773,108.064,KCK,1899
                ,tomsk,city,0.535,56.380,85.208,TOF,1900
                ,abakan,city,0.167,53.740,91.385,ABA,1901
                ,belgorod,city,0.345,50.644,36.590,EGO,1902
                ,lipetsk,city,0.516,52.703,39.538,LPK,1903
                ,mys kamenny,city,,,,YMK,1904
                ,cherepovets,city,0.312,59.274,38.016,CEE,1905
                ,chelyabinsk,city,1.091,55.306,61.503,CEK,1906
                ,petropavlovsk (ru),city,,53.168,158.454,PKC,1907
                ,solovetsky,city,,65.030,35.733,CSH,1908
                ,cheboksary,city,0.447,56.090,47.347,CSY,1909
                ,sochi,city,0.328,43.450,39.957,AER,1910
                ,astrakhan,city,,46.283,48.006,ASF,1911
                ,omsk,city,1.135,54.967,73.311,OMS,1912
                ,anapa,city,,45.002,37.347,AAQ,1913
                ,salekhard,city,0.038,66.591,66.611,SLY,1914
                ,makhachkala,city,0.555,42.817,47.652,MCX,1915
                ,belaya gora,city,,68.557,146.232,BGN,1916
                ,tiksi,city,0.006,71.698,128.903,IKS,1917
                ,irkutsk,city,0.587,52.268,104.389,IKT,1918
                ,beloyarsky,city,,63.687,66.699,EYK,1919
                ,tambov,city,0.301,52.806,41.483,TBW,1920
                ,arkhangelsk,city,,64.600,40.717,ARH,1921
                ,iturup island,city,,,,BVV,1922
                ,kirov,city,0.457,58.503,49.348,KVX,1923
                ,rostov,city,0.034,47.494,39.925,ROV,1924
                ,nizhnevartovsk,city,0.245,60.949,76.484,NJC,1925
                ,volgograd,city,0.984,48.783,44.346,VOG,1926
                ,lensk,city,0.026,60.721,114.826,ULK,1927
                ,voronezh,city,0.844,51.814,39.230,VOZ,1928
                ,ulyanovsk,city,,54.268,48.227,ULV,1929
                ,pechora,city,0.046,65.121,57.131,PEX,1930
                ,izhevsk,city,0.631,56.828,53.458,IJK,1931
                ,kurgan,city,0.343,55.475,65.416,KRO,1932
            ,ukraine,country,
                ,sevastopol,city,,44.689,33.571,UKS,2780
                ,mykolaiv,city,,47.058,31.920,NLV,2781
                ,chernivtsi,city,0.298,48.259,25.981,CWC,2782
                ,donetsk,city,,48.074,37.740,DOK,2783
                ,kharkiv,city,1.461,49.925,36.290,HRK,2784
                ,dnipropetrovsk,city,,48.357,35.101,DNK,2785
                ,uzhhorod,city,0.151,48.634,22.263,UDJ,2786
                ,odesa,city,0.991,46.427,30.677,ODS,2787
                ,luhansk,city,,48.417,39.374,VSG,2788
                ,simferopol,city,,45.052,33.975,SIP,2789
                ,kherson,city,0.320,46.676,32.506,KHE,2790
                ,lviv,city,,49.812,23.956,LWO,2791
                ,vinnytsia,city,,49.243,28.614,VIN,2792
                ,ivano frankivsk,city,,48.884,24.686,IFO,2793
                ,krivyi rih,city,,48.043,33.210,KWG,2794
                ,zaporizhia,city,,47.867,35.316,OZH,2795
                ,kiev,city,,50.345,30.895,KBP,2796
        ,southern europe,region,
            ,gibraltar,country,
            ,montenegro,country,
                ,podgorica,city,0.146,42.359,19.252,TGD,844
            ,macedonia,country,
                ,ohrid,city,,41.180,20.742,OHD,1326
                ,skopje,city,0.494,41.962,21.621,SKP,1327
            ,albania,country,
                ,tirana,city,0.895,41.415,19.721,TIA,1783
            ,serbia,country,
                ,belgrade,city,1.099,44.818,20.309,BEG,2051
                ,nis,city,0.250,43.337,21.854,INI,2052
            ,kosovo,country,
                ,pristina,city,,42.573,21.036,PRN,2797
            ,bosnia and herzegovina,country,
                ,banja luka,city,0.222,44.941,17.298,BNX,2818
                ,sarajevo,city,0.697,43.825,18.331,SJJ,2819
                ,tuzla,city,0.144,44.459,18.725,TZL,2820
        ,western europe,region,
            ,switzerland,country,
                ,berne,city,,46.914,7.497,BRN,275
                ,zurich,city,1.108,47.465,8.549,ZRH,276
                ,lugano,city,0.105,46.004,8.911,LUG,277
                ,altenrhein,city,,47.485,9.561,ACH,278
                ,geneva,city,1.240,46.238,6.109,GVA,279
            ,monaco,country,
        ,northern europe,region,
            ,united kingdom|united kingdon|uk,country,
                ,benbecula,city,,57.481,-7.363,BEB,760
                ,anglesey,city,,53.248,-4.535,VLY,761
                ,edinburgh,city,0.505,55.950,-3.372,EDI,762
                ,dundee,city,0.152,56.452,-3.026,DND,763
                ,bristol,city,0.554,51.383,-2.719,BRS,764
                ,barra,city,,57.023,-7.443,BRR,765
                ,exeter,city,0.113,50.734,-3.414,EXT,766
                ,inverness,city,0.045,57.542,-4.048,INV,767
                ,oban,city,,56.464,-5.400,OBN,768
                ,durham,city,,54.509,-1.429,MME,769
                ,newcastle (uk),city,,55.037,-1.692,NCL,770
                ,oxford,city,0.193,51.837,-1.320,OXF,771
                ,stornoway,city,,58.216,-6.331,SYY,772
                ,nottingham,city,0.826,52.831,-1.328,EMA,773
                ,derry,city,0.084,55.043,-7.161,LDY,774
                ,lydd,city,,50.956,0.939,LYX,775
                ,tiree,city,,56.499,-6.869,TRE,776
                ,isles of scilly,city,,49.913,-6.292,ISC,777
                ,doncaster,city,,53.481,-1.011,DSA,778
                ,blackpool,city,0.273,53.772,-3.029,BLK,779
                ,newquay,city,,50.441,-4.995,NQY,780
                ,southampton,city,0.384,50.950,-1.357,SOU,781
                ,glasgow (uk),city,,55.872,-4.433,GLA,782
                ,gloucester,city,,51.894,-2.167,GLO,783
                ,norwich,city,,52.676,1.283,NWI,784
                ,aberdeen (uk),city,,57.202,-2.198,ABZ,785
                ,birmingham (uk),city,,52.454,-1.748,BHX,786
                ,leeds bradford,city,,53.866,-1.661,LBA,787
                ,belfast,city,0.450,54.658,-6.216,BFS,788
                ,manchester,city,2.230,53.354,-2.275,MAN,789
                ,islay,city,,55.682,-6.257,ILY,790
                ,london (uk)|london,city,,51.471,-0.462,LHR,791
                ,manston,city,,51.342,1.346,MSE,792
                ,shetland islands,city,,59.879,-1.296,LSI,793
                ,wick,city,0.007,58.459,-3.093,WIC,794
            ,norway,country,
                ,stord,city,,59.792,5.341,SRP,1140
                ,hasvik,city,,70.487,22.140,HAA,1141
                ,bronnoysund,city,,65.461,12.217,BNN,1142
                ,haugesund,city,0.040,59.345,5.208,HAU,1143
                ,kirkenes,city,0.003,69.726,29.891,KKN,1144
                ,alesund,city,0.048,62.562,6.120,AES,1145
                ,bodo,city,0.034,67.269,14.365,BOO,1146
                ,stavanger,city,0.173,58.877,5.638,SVG,1147
                ,lakselv,city,,70.069,24.973,LKL,1148
                ,trondheim,city,0.147,63.458,10.924,TRD,1149
                ,roros,city,,62.578,11.342,RRS,1150
                ,mosjoen,city,,65.784,13.215,MJF,1151
                ,sogndal,city,,61.156,7.138,SOG,1152
                ,rost,city,,67.528,12.103,RET,1153
                ,sorkjosen,city,,69.787,20.959,SOJ,1154
                ,vardo,city,,70.355,31.045,VAW,1155
                ,molde,city,0.019,62.745,7.262,MOL,1156
                ,honningsvag,city,,71.010,25.984,HVG,1157
                ,moss,city,0.037,59.379,10.785,RYG,1158
                ,leknes,city,,68.152,13.609,LKN,1159
                ,andenes,city,,69.293,16.144,ANX,1160
                ,kristiansand,city,0.064,58.204,8.085,KRS,1161
                ,hammerfest,city,0.010,70.680,23.669,HFT,1162
                ,fagernes,city,,61.016,9.288,VDB,1163
                ,alta,city,0.012,69.976,23.372,ALF,1164
                ,tromso,city,0.052,69.683,18.919,TOS,1165
                ,mo i rana,city,0.020,66.364,14.301,MQN,1166
                ,bergen,city,0.214,60.293,5.218,BGO,1167
                ,floro,city,,61.584,5.025,FRO,1168
                ,orland,city,,63.699,9.604,OLA,1169
                ,harstad,city,0.019,68.491,16.678,EVE,1170
                ,batsfjord,city,,70.601,29.691,BJF,1171
                ,namsos,city,0.009,64.472,11.579,OSY,1172
                ,oslo,city,0.835,60.121,11.050,OSL,1173
                ,bardufoss,city,,69.056,18.540,BDU,1174
            ,iceland,country,
                ,grimsey,city,,66.546,-18.017,GRY,1347
                ,akureyri,city,0.017,65.660,-18.073,AEY,1348
                ,vopnafjordur,city,,65.721,-14.851,VPN,1349
                ,reykjavik,city,0.166,63.985,-22.606,KEF,1350
                ,egilsstadir,city,,65.283,-14.401,EGS,1351
                ,isafjordur,city,,66.058,-23.135,IFJ,1352
                ,thorshofn,city,,66.218,-15.336,THO,1353
            ,guernsey,country,
            ,jersey,country,
            ,faeroe islands,country,
                ,faroe islands,city,,62.064,-7.277,FAE,1558
            ,isle of man,country,
            ,svalbard islands,country,
                ,longyearbyen,city,,78.246,15.466,LYR,1700
            ,aland islands,country,
                ,mariehamn,city,,60.122,19.898,MHQ,1788
        ,european union|eu,,512.000
            ,austria,country,
                ,graz,city,0.263,46.991,15.440,GRZ,1694
                ,linz,city,0.349,48.233,14.188,LNZ,1695
                ,klagenfurt,city,0.091,46.643,14.338,KLU,1696
                ,innsbruck,city,0.155,47.260,11.344,INN,1697
                ,salzburg,city,0.206,47.793,13.004,SZG,1698
                ,vienna,city,2.400,48.110,16.570,VIE,1699
            ,belgium,country,
                ,liege,city,0.749,50.637,5.443,LGG,719
                ,brussels,city,1.743,50.901,4.484,BRU,720
                ,oostende,city,,51.199,2.862,OST,721
            ,bulgaria,country,
                ,plovdiv,city,0.340,42.068,24.851,PDV,81
                ,varna,city,0.313,43.232,27.825,VAR,82
                ,burgas,city,0.196,42.570,27.515,BOJ,83
                ,sofia,city,1.185,42.697,23.411,SOF,84
            ,croatia,country,
                ,split,city,0.215,43.539,16.298,SPU,284
                ,dubrovnik,city,0.037,42.561,18.268,DBV,285
                ,rijeka,city,0.171,45.217,14.570,RJK,286
                ,zagreb,city,0.723,45.743,16.069,ZAG,287
                ,zadar,city,0.071,44.108,15.347,ZAD,288
                ,osijek,city,0.095,45.463,18.810,OSI,289
                ,pula,city,0.062,44.894,13.922,PUY,290
            ,cyprus,country,
                ,paphos,city,0.036,34.718,32.486,PFO,2816
                ,larnaca,city,0.049,34.875,33.625,LCA,2817
            ,czech republic|czechia,country,
                ,prague,city,1.162,50.101,14.260,PRG,1175
                ,brno,city,0.388,49.151,16.694,BRQ,1176
                ,karlovy vary,city,,50.203,12.915,KLV,1177
                ,pardubice,city,0.107,50.013,15.739,PED,1178
                ,ostrava,city,0.479,49.696,18.111,OSR,1179
            ,denmark,country,
                ,sonderborg,city,,54.964,9.792,SGD,1561
                ,billund,city,,55.740,9.152,BLL,1562
                ,karup,city,,56.298,9.125,KRP,1563
                ,copenhagen,city,1.085,55.618,12.656,CPH,1564
                ,aalborg,city,0.122,57.093,9.849,AAL,1565
                ,aarhus,city,0.238,56.300,10.619,AAR,1566
                ,bornholm,city,,55.063,14.760,RNN,1567
            ,estonia,country,
                ,tartu,city,0.101,58.307,26.690,TAY,2865
                ,kuressaare,city,,58.230,22.510,URE,2866
                ,tallinn,city,0.394,59.413,24.833,TLL,2867
                ,kardla,city,,58.991,22.831,KDL,2868
            ,finland,country,
                ,joensuu,city,0.053,62.663,29.608,JOE,496
                ,pori,city,0.077,61.462,21.800,POR,497
                ,varkaus,city,,62.171,27.869,VRK,498
                ,rovaniemi,city,0.035,66.565,25.830,RVN,499
                ,vaasa,city,0.057,63.051,21.762,VAA,500
                ,kokkola,city,0.047,63.721,23.143,KOK,501
                ,kajaani,city,,64.285,27.692,KAJ,502
                ,kuusamo,city,,65.988,29.239,KAO,503
                ,enontekio,city,,68.363,23.424,ENF,504
                ,jyvaskyla,city,0.098,62.400,25.678,JYV,505
                ,seinajoki,city,,62.692,22.832,SJY,506
                ,savonlinna,city,0.027,61.943,28.945,SVL,507
                ,turku,city,0.176,60.514,22.263,TKU,508
                ,oulu,city,0.137,64.930,25.355,OUL,509
                ,kemi,city,0.023,65.779,24.582,KEM,510
                ,tampere,city,0.259,61.414,23.604,TMP,511
                ,helsinki,city,1.115,60.317,24.963,HEL,512
                ,ivalo,city,,68.607,27.405,IVL,513
                ,kuopio,city,0.092,63.007,27.798,KUO,514
                ,kittila,city,,67.701,24.847,KTT,515
                ,lappeenranta,city,0.059,61.045,28.145,LPP,516
            ,france,country,
                ,agen,city,0.058,44.175,0.591,AGF,1489
                ,albert,city,,49.972,2.698,BYF,1490
                ,brest (fr),city,,48.448,-4.419,BES,1491
                ,clermont ferrand,city,0.233,45.787,3.169,CFE,1492
                ,chateauroux,city,,46.860,1.721,CHR,1493
                ,chalons en champagne,city,,48.773,4.206,XCR,1494
                ,tours,city,0.236,47.432,0.728,TUF,1495
                ,metz,city,0.409,48.982,6.251,ETZ,1496
                ,st etienne,city,,45.541,4.296,EBU,1497
                ,quimper,city,,47.975,-4.168,UIP,1498
                ,ajaccio,city,0.054,41.924,8.803,AJA,1499
                ,st malo,city,,48.588,-2.080,DNR,1500
                ,basel,city,,47.590,7.529,BSL,1501
                ,aurillac,city,,44.891,2.422,AUR,1502
                ,marseille,city,1.400,43.439,5.221,MRS,1503
                ,chambery,city,,45.638,5.880,CMF,1504
                ,lille,city,1.044,50.563,3.087,LIL,1505
                ,montpellier,city,0.327,43.576,3.963,MPL,1506
                ,calvi,city,,42.524,8.793,CLY,1507
                ,figari,city,,41.501,9.098,FSC,1508
                ,dole,city,,47.043,5.435,DLE,1509
                ,epinal,city,,48.325,6.070,EPL,1510
                ,bordeaux,city,0.803,44.828,-0.716,BOD,1511
                ,strasbourg,city,0.440,48.538,7.628,SXB,1512
                ,lyon,city,1.423,45.726,5.081,LYS,1513
                ,rodez,city,,44.408,2.483,RDZ,1514
                ,caen,city,0.190,49.173,-0.450,CFR,1515
                ,le touquet,city,,50.517,1.621,LTQ,1516
                ,perpignan,city,0.147,42.740,2.871,PGF,1517
                ,pau,city,,43.380,-0.419,PUF,1518
                ,toulouse,city,0.847,43.629,1.364,TLS,1519
                ,toulon,city,0.358,43.097,6.146,TLN,1520
                ,carcassonne,city,,43.216,2.306,CCF,1521
                ,poitiers,city,0.086,46.588,0.307,PIS,1522
                ,lannion,city,,48.754,-3.472,LAI,1523
                ,beziers,city,0.081,43.324,3.354,BZR,1524
                ,nantes,city,0.439,47.153,-1.611,NTE,1525
                ,bergerac,city,,44.825,0.519,EGC,1526
                ,le puy,city,,45.081,3.763,LPY,1527
                ,cherbourg,city,0.061,49.650,-1.470,CER,1528
                ,bastia,city,0.041,42.553,9.484,BIA,1529
                ,biarritz,city,0.145,43.468,-1.531,BIQ,1530
                ,limoges,city,0.152,45.863,1.179,LIG,1531
                ,rennes,city,0.209,48.069,-1.735,RNS,1532
                ,angers,city,0.188,47.560,-0.312,ANE,1533
                ,nice,city,0.927,43.658,7.216,NCE,1534
                ,paris,city,9.904,49.013,2.550,CDG,1535
                ,brive la gaillarde,city,0.055,45.040,1.486,BVE,1536
                ,la rochelle,city,0.077,46.179,-1.195,LRH,1537
                ,lorient,city,0.085,47.761,-3.440,LRT,1538
            ,germany,country,
                ,augsburg,city,0.359,48.425,10.932,AGB,724
                ,karlsruhe,city,0.377,48.779,8.080,FKB,725
                ,paderborn,city,,51.614,8.616,PAD,726
                ,dresden,city,0.618,51.133,13.767,DRS,727
                ,bremen,city,0.725,53.048,8.787,BRE,728
                ,rostock,city,0.203,53.918,12.278,RLG,729
                ,hannover,city,0.722,52.461,9.685,HAJ,730
                ,erfurt,city,0.203,50.980,10.958,ERF,731
                ,stuttgart,city,2.945,48.690,9.222,STR,732
                ,frankfurt,city,2.895,50.033,8.571,FRA,733
                ,kevelaer,city,,51.602,6.142,NRN,734
                ,hamburg,city,1.757,53.630,9.988,HAM,735
                ,leipzig,city,0.543,51.424,12.236,LEJ,736
                ,kassel,city,0.290,51.417,9.385,KSF,737
                ,muenster,city,,52.135,7.685,FMO,738
                ,memmingen,city,,47.989,10.240,FMM,739
                ,heringsdorf,city,,53.879,14.152,HDF,740
                ,westerland,city,,54.913,8.340,GWT,741
                ,berlin,city,3.406,52.560,13.288,TXL,742
                ,simmern,city,,49.949,7.264,HHN,743
                ,saarbrucken,city,0.770,49.215,7.110,SCN,744
                ,dortmund,city,0.588,51.518,7.612,DTM,745
                ,lubeck,city,0.235,53.805,10.719,LBC,746
                ,magdeburg,city,0.230,51.856,11.420,CSO,747
                ,munich,city,1.275,48.354,11.786,MUC,748
                ,nuremberg,city,0.737,49.499,11.078,NUE,749
                ,duesseldorf,city,,51.290,6.767,DUS,750
                ,friedrichshafen,city,,47.671,9.511,FDH,751
                ,cologne,city,1.004,50.866,7.143,CGN,752
            ,greece,country,
                ,milos,city,,36.697,24.477,MLO,908
                ,kerkyra,city,0.039,39.602,19.912,CFU,909
                ,chania,city,0.079,35.532,24.150,CHQ,910
                ,ioannina,city,0.086,39.696,20.823,IOA,911
                ,megisti,city,,36.142,29.576,KZS,912
                ,kalamata,city,0.072,37.068,22.025,KLX,913
                ,rhodes,city,,36.405,28.086,RHO,914
                ,athens (gr),city,,37.936,23.944,ATH,915
                ,chios,city,0.027,38.343,26.141,JKH,916
                ,preveza,city,,38.925,20.765,PVK,917
                ,limnos,city,,39.917,25.236,LXS,918
                ,kozani,city,,40.286,21.841,KZI,919
