key: earth
kind: world
names:
- world
- earth
population: 7713000000
subregions:
-   gleam_id: 0
    key: africa
    kind: continent
    names:
    - Africa
    population: 1275920000
    subregions:
    -   gleam_id: 2
        iso_alpha_3: AGO
        key: angola
        kind: country
        names:
        - Angola
        population: 28813000
        subregions:
        -   gleam_id: 0
            iana: SPP
            key: menongue
            kind: city
            lat: -14.658
            lon: 17.72
            names:
            - Menongue
            population: 13000
        -   gleam_id: 1
            iana: NOV
            key: huambo
            kind: city
            lat: -12.809
            lon: 15.76
            names:
            - Huambo
            population: 1100000
        -   gleam_id: 2
            iana: SSY
            key: m'banza congo
            kind: city
            lat: -6.27
            lon: 14.247
            names:
            - M'Banza Congo
        -   gleam_id: 3
            iana: SZA
            key: soyo
            kind: city
            lat: -6.141
            lon: 12.372
            names:
            - Soyo
        -   gleam_id: 4
            iana: SDD
            key: lubango
            kind: city
            lat: -14.925
            lon: 13.575
            names:
            - Lubango
            population: 126000
        -   gleam_id: 5
            iana: SVP
            key: kuito
            kind: city
            lat: -12.405
            lon: 16.947
            names:
            - Kuito
        -   gleam_id: 6
            iana: CAB
            key: cabinda
            kind: city
            lat: -5.597
            lon: 12.188
            names:
            - Cabinda
            population: 92000
        -   gleam_id: 7
            iana: LUO
            key: luena
            kind: city
            lat: -11.768
            lon: 19.898
            names:
            - Luena
            population: 21000
        -   gleam_id: 8
            iana: VPE
            key: ondjiva
            kind: city
            lat: -17.044
            lon: 15.684
            names:
            - Ondjiva
            population: 10000
        -   gleam_id: 9
            iana: MEG
            key: malange
            kind: city
            lat: -9.525
            lon: 16.312
            names:
            - Malange
        -   gleam_id: 10
            iana: VHC
            key: saurimo
            kind: city
            lat: -9.689
            lon: 20.432
            names:
            - Saurimo
            population: 41000
        -   gleam_id: 11
            iana: LAD
            key: luanda
            kind: city
            lat: -8.858
            lon: 13.231
            names:
            - Luanda
            population: 5173000
        -   gleam_id: 12
            iana: CBT
            key: catumbela
            kind: city
            lat: -12.479
            lon: 13.487
            names:
            - Catumbela
            population: 17000
        -   gleam_id: 13
            iana: MSZ
            key: namibe
            kind: city
            lat: -15.261
            lon: 12.147
            names:
            - Namibe
            population: 133000
    -   gleam_id: 192
        iso_alpha_3: STP
        key: sao tome and principe
        kind: country
        names:
        - São Tomé and Principe
        population: 200000
        subregions:
        -   gleam_id: 551
            iana: TMS
            key: sao tome
            kind: city
            lat: 0.378
            lon: 6.712
            names:
            - Sao Tome
            population: 88000
    -   gleam_id: 74
        iso_alpha_3: GAB
        key: gabon
        kind: country
        names:
        - Gabon
        population: 1980000
        subregions:
        -   gleam_id: 646
            iana: POG
            key: port gentil
            kind: city
            lat: -0.712
            lon: 8.754
            names:
            - Port Gentil
            population: 117000
        -   gleam_id: 647
            iana: LBV
            key: libreville
            kind: city
            lat: 0.459
            lon: 9.412
            names:
            - Libreville
            population: 578000
    -   gleam_id: 41
        iso_alpha_3: CMR
        key: cameroon
        kind: country
        names:
        - Cameroon
        population: 23439000
        subregions:
        -   gleam_id: 805
            iana: DLA
            key: douala
            kind: city
            lat: 4.006
            lon: 9.719
            names:
            - Douala
            population: 1906000
        -   gleam_id: 806
            iana: GOU
            key: garoua
            kind: city
            lat: 9.336
            lon: 13.37
            names:
            - Garoua
            population: 437000
        -   gleam_id: 807
            iana: NSI
            key: yaounde
            kind: city
            lat: 3.723
            lon: 11.553
            names:
            - Yaounde
            population: 1611000
        -   gleam_id: 808
            iana: NGE
            key: ngaoundere
            kind: city
            lat: 7.357
            lon: 13.559
            names:
            - Ngaoundere
            population: 231000
        -   gleam_id: 809
            iana: MVR
            key: maroua
            kind: city
            lat: 10.451
            lon: 14.257
            names:
            - Maroua
            population: 320000
    -   gleam_id: 202
        iso_alpha_3: TCD
        key: chad
        kind: country
        names:
        - Chad
        population: 14453000
        subregions:
        -   gleam_id: 840
            iana: NDJ
            key: n'djamena
            kind: city
            lat: 12.134
            lon: 15.034
            names:
            - N'djamena
            population: 989000
    -   gleam_id: 42
        iso_alpha_3: COD
        key: congo, dem. rep.
        kind: country
        names:
        - DR Congo
        - Democratic Republic of the Congo
        - congo (kinshasa)
        - Congo, Dem. Rep.
        population: 78736000
        subregions:
        -   gleam_id: 1328
            iana: FKI
            key: kisangani
            kind: city
            lat: 0.482
            lon: 25.338
            names:
            - Kisangani
            population: 578000
        -   gleam_id: 1329
            iana: BUX
            key: bunia
            kind: city
            lat: 1.566
            lon: 30.221
            names:
            - Bunia
            population: 97000
        -   gleam_id: 1330
            iana: GMA
            key: gemena
            kind: city
            lat: 3.235
            lon: 19.771
            names:
            - Gemena
            population: 198000
        -   gleam_id: 1331
            iana: FIH
            key: kinshasa
            kind: city
            lat: -4.386
            lon: 15.445
            names:
            - Kinshasa
            population: 7843000
        -   gleam_id: 1332
            iana: KOO
            key: kongolo
            kind: city
            lat: -5.394
            lon: 26.99
            names:
            - Kongolo
            population: 105000
        -   gleam_id: 1333
            iana: KND
            key: kindu
            kind: city
            lat: -2.919
            lon: 25.915
            names:
            - Kindu
            population: 263000
        -   gleam_id: 1334
            iana: BNB
            key: boende
            kind: city
            lat: -0.217
            lon: 20.85
            names:
            - Boende
            population: 32000
        -   gleam_id: 1335
            iana: BNC
            key: beni
            kind: city
            lat: 0.575
            lon: 29.474
            names:
            - Beni
            population: 333000
        -   gleam_id: 1336
            iana: LJA
            key: lodja
            kind: city
            lat: -3.417
            lon: 23.45
            names:
            - Lodja
            population: 68000
        -   gleam_id: 1337
            iana: IRP
            key: isiro
            kind: city
            lat: 2.828
            lon: 27.588
            names:
            - Isiro
            population: 157000
        -   gleam_id: 1338
            iana: FBM
            key: lubumbashi
            kind: city
            lat: -11.591
            lon: 27.531
            names:
            - Lubumbashi
            population: 1352000
        -   gleam_id: 1339
            iana: MJM
            key: mbuji mayi
            kind: city
            lat: -6.121
            lon: 23.569
            names:
            - Mbuji-Mayi
            population: 1295000
        -   gleam_id: 1340
            iana: TSH
            key: tshikapa
            kind: city
            lat: -6.438
            lon: 20.795
            names:
            - Tshikapa
            population: 267000
        -   gleam_id: 1341
            iana: FMI
            key: kalemie
            kind: city
            lat: -5.876
            lon: 29.25
            names:
            - Kalemie
            population: 206000
        -   gleam_id: 1342
            iana: MDK
            key: mbandaka
            kind: city
            lat: 0.023
            lon: 18.289
            names:
            - Mbandaka
            population: 275000
        -   gleam_id: 1343
            iana: BKY
            key: bukavu
            kind: city
            lat: -2.309
            lon: 28.809
            names:
            - Bukavu
            population: 437000
        -   gleam_id: 1344
            iana: KGA
            key: kananga
            kind: city
            lat: -5.9
            lon: 22.469
            names:
            - Kananga
            population: 765000
        -   gleam_id: 1542
            iana: GOM
            key: goma
            kind: city
            lat: -1.671
            lon: 29.239
            names:
            - Goma
            population: 144000
    -   gleam_id: 43
        iso_alpha_3: COG
        key: congo, rep.
        kind: country
        names:
        - Republic of the Congo
        - Congo, Rep.
        - congo (brazzaville)
        population: 5126000
        subregions:
        -   gleam_id: 1345
            iana: PNR
            key: pointe noire
            kind: city
            lat: -4.816
            lon: 11.887
            names:
            - Pointe-Noire
        -   gleam_id: 1346
            iana: BZV
            key: brazzaville
            kind: city
            lat: -4.252
            lon: 15.253
            names:
            - Brazzaville
            population: 1355000
    -   gleam_id: 84
        iso_alpha_3: GNQ
        key: equatorial guinea
        kind: country
        names:
        - Equatorial Guinea
        population: 1221000
        subregions:
        -   gleam_id: 2053
            iana: SSG
            key: malabo
            kind: city
            lat: 3.755
            lon: 8.709
            names:
            - Malabo
            population: 156000
        -   gleam_id: 2054
            iana: BSG
            key: bata
            kind: city
            lat: 1.905
            lon: 9.806
            names:
            - Bata
            population: 173000
    -   gleam_id: 34
        iso_alpha_3: CAF
        key: central african republic
        kind: country
        names:
        - Central African Republic
        population: 4595000
        subregions:
        -   gleam_id: 2811
            iana: BGF
            key: bangui
            kind: city
            lat: 4.398
            lon: 18.519
            names:
            - Bangui
            population: 832000
    -   gleam_id: 61
        iso_alpha_3: DZA
        key: algeria
        kind: country
        names:
        - Algeria
        population: 40606000
        subregions:
        -   gleam_id: 14
            iana: CFK
            key: chlef
            kind: city
            lat: 36.213
            lon: 1.332
            names:
            - Chlef
            population: 449000
        -   gleam_id: 15
            iana: HME
            key: hassi messaoud
            kind: city
            lat: 31.673
            lon: 6.14
            names:
            - Hassi Messaoud
            population: 18000
        -   gleam_id: 16
            iana: QSF
            key: setif
            kind: city
            lat: 36.178
            lon: 5.324
            names:
            - Setif
            population: 275000
        -   gleam_id: 17
            iana: LOO
            key: laghouat
            kind: city
            lat: 33.764
            lon: 2.928
            names:
            - Laghouat
            population: 114000
        -   gleam_id: 18
            iana: EBH
            key: el bayadh
            kind: city
            lat: 33.722
            lon: 1.093
            names:
            - El Bayadh
            population: 67000
        -   gleam_id: 19
            iana: TEE
            key: tebessa
            kind: city
            lat: 35.432
            lon: 8.121
            names:
            - Tebessa
            population: 172000
        -   gleam_id: 20
            iana: ORN
            key: oran
            kind: city
            lat: 35.624
            lon: -0.621
            names:
            - Oran
            population: 798000
        -   gleam_id: 21
            iana: INZ
            key: in salah
            kind: city
            lat: 27.251
            lon: 2.512
            names:
            - In Salah
        -   gleam_id: 22
            iana: INF
            key: in guezzam
            kind: city
            names:
            - In Guezzam
        -   gleam_id: 23
            iana: BSK
            key: biskra
            kind: city
            lat: 34.793
            lon: 5.738
            names:
            - Biskra
            population: 202000
        -   gleam_id: 24
            iana: CZL
            key: constantine
            kind: city
            lat: 36.276
            lon: 6.62
            names:
            - Constantine
            population: 605000
        -   gleam_id: 25
            iana: OGX
            key: ouargla
            kind: city
            lat: 31.917
            lon: 5.413
            names:
            - Ouargla
            population: 176000
        -   gleam_id: 26
            iana: TGR
            key: touggourt
            kind: city
            lat: 33.068
            lon: 6.089
            names:
            - Touggourt
            population: 134000
        -   gleam_id: 27
            iana: VVZ
            key: illizi
            kind: city
            lat: 26.723
            lon: 8.623
            names:
            - Illizi
            population: 8000
        -   gleam_id: 28
            iana: ELG
            key: el golea
            kind: city
            lat: 30.571
            lon: 2.86
            names:
            - El Golea
            population: 32000
        -   gleam_id: 29
            iana: ELU
            key: el oued
            kind: city
            lat: 33.511
            lon: 6.777
            names:
            - El Oued
            population: 177000
        -   gleam_id: 30
            iana: AZR
            key: adrar
            kind: city
            lat: 27.838
            lon: -0.186
            names:
            - Adrar
            population: 57000
        -   gleam_id: 31
            iana: DJG
            key: djanet
            kind: city
            lat: 24.293
            lon: 9.452
            names:
            - Djanet
            population: 1000
        -   gleam_id: 32
            iana: BLJ
            key: batna
            kind: city
            lat: 35.752
            lon: 6.309
            names:
            - Batna
            population: 281000
        -   gleam_id: 33
            iana: GHA
            key: ghardaia
            kind: city
            lat: 32.384
            lon: 3.794
            names:
            - Ghardaia
            population: 125000
        -   gleam_id: 34
            iana: BMW
            key: bordj mokhtar
            kind: city
            lat: 21.375
            lon: 0.924
            names:
            - Bordj Mokhtar
        -   gleam_id: 35
            iana: TLM
            key: tlemcen
            kind: city
            lat: 35.017
            lon: -1.45
            names:
            - Tlemcen
            population: 230000
        -   gleam_id: 36
            iana: IAM
            key: in amenas
            kind: city
            lat: 28.052
            lon: 9.643
            names:
            - In Amenas
        -   gleam_id: 37
            iana: MZW
            key: mecheria
            kind: city
            lat: 33.536
            lon: -0.242
            names:
            - Mecheria
        -   gleam_id: 38
            iana: TMR
            key: tamanrasset
            kind: city
            lat: 22.812
            lon: 5.451
            names:
            - Tamanrasset
            population: 76000
        -   gleam_id: 39
            iana: TMX
            key: timimoun
            kind: city
            lat: 29.237
            lon: 0.276
            names:
            - Timimoun
            population: 49000
        -   gleam_id: 40
            iana: BJA
            key: bejaia
            kind: city
            lat: 36.712
            lon: 5.07
            names:
            - Bejaia
            population: 385000
        -   gleam_id: 41
            iana: GJL
            key: jijel
            kind: city
            lat: 36.795
            lon: 5.874
            names:
            - Jijel
            population: 148000
        -   gleam_id: 42
            iana: CBH
            key: bechar
            kind: city
            lat: 31.646
            lon: -2.27
            names:
            - Bechar
            population: 143000
        -   gleam_id: 43
            iana: ALG
            key: algiers
            kind: city
            lat: 36.691
            lon: 3.215
            names:
            - Algiers
            population: 3354000
        -   gleam_id: 44
            iana: MUW
            key: mascara
            kind: city
            lat: 35.208
            lon: 0.147
            names:
            - Mascara
            population: 108000
        -   gleam_id: 45
            iana: AAE
            key: annaba
            kind: city
            lat: 36.822
            lon: 7.809
            names:
            - Annaba
            population: 504000
        -   gleam_id: 46
            iana: TIN
            key: tindouf
            kind: city
            lat: 27.7
            lon: -8.167
            names:
            - Tindouf
            population: 18000
        -   gleam_id: 47
            iana: TID
            key: tiaret
            kind: city
            lat: 35.341
            lon: 1.463
            names:
            - Tiaret
            population: 184000
    -   gleam_id: 121
        iso_alpha_3: LBY
        key: libya
        kind: country
        names:
        - Libya
        population: 6293000
        subregions:
        -   gleam_id: 154
            iana: BEN
            key: benghazi
            kind: city
            lat: 32.097
            lon: 20.27
            names:
            - Benghazi
            population: 1180000
        -   gleam_id: 155
            iana: SRX
            key: sirte
            kind: city
            lat: 31.063
            lon: 16.595
            names:
            - Sirte
            population: 128000
        -   gleam_id: 156
            iana: SEB
            key: sebha
            kind: city
            lat: 26.987
            lon: 14.472
            names:
            - Sebha
        -   gleam_id: 157
            iana: AKF
            key: kufra
            kind: city
            lat: 24.179
            lon: 23.314
            names:
            - Kufra
        -   gleam_id: 158
            iana: KAS
            key: karasburg
            kind: city
            names:
            - Karasburg
            population: 6000
        -   gleam_id: 159
            iana: MRA
            key: misurata
            kind: city
            names:
            - Misurata
        -   gleam_id: 160
            iana: QUB
            key: ubari
            kind: city
            names:
            - Ubari
        -   gleam_id: 161
            iana: GHT
            key: ghat
            kind: city
            lat: 25.146
            lon: 10.143
            names:
            - Ghat
            population: 24000
        -   gleam_id: 162
            iana: LTD
            key: ghadames
            kind: city
            lat: 30.152
            lon: 9.715
            names:
            - Ghadames
        -   gleam_id: 163
            iana: LAQ
            key: beida
            kind: city
            lat: 32.789
            lon: 21.964
            names:
            - Beida
        -   gleam_id: 164
            iana: TOB
            key: tobruk
            kind: city
            lat: 31.861
            lon: 23.907
            names:
            - Tobruk
            population: 264000
        -   gleam_id: 165
            iana: TIP
            key: tripoli
            kind: city
            lat: 32.664
            lon: 13.159
            names:
            - Tripoli
            population: 2189000
    -   gleam_id: 128
        iso_alpha_3: MAR
        key: morocco
        kind: country
        names:
        - Morocco
        population: 35277000
        subregions:
        -   gleam_id: 810
            iana: AGA
            key: agadir
            kind: city
            lat: 30.325
            lon: -9.413
            names:
            - Agadir
            population: 825000
        -   gleam_id: 811
            iana: TTA
            key: tan tan
            kind: city
            lat: 28.448
            lon: -11.161
            names:
            - Tan Tan
            population: 65000
        -   gleam_id: 812
            iana: EUN
            key: laayoune
            kind: city
            lat: 27.152
            lon: -13.219
            names:
            - Laayoune
            population: 196000
        -   gleam_id: 813
            iana: TTU
            key: tetouan
            kind: city
            lat: 35.594
            lon: -5.32
            names:
            - Tetouan
            population: 326000
        -   gleam_id: 814
            iana: CMN
            key: casablanca
            kind: city
            lat: 33.368
            lon: -7.59
            names:
            - Casablanca
            population: 3181000
        -   gleam_id: 815
            iana: ERH
            key: errachidia
            kind: city
            lat: 31.948
            lon: -4.398
            names:
            - Errachidia
            population: 228000
        -   gleam_id: 816
            iana: ESU
            key: essaouira
            kind: city
            lat: 31.397
            lon: -9.682
            names:
            - Essaouira
            population: 71000
        -   gleam_id: 817
            iana: OZZ
            key: ouarzazate
            kind: city
            lat: 30.939
            lon: -6.909
            names:
            - Ouarzazate
        -   gleam_id: 818
            iana: AHU
            key: al hoceima
            kind: city
            lat: 35.177
            lon: -3.84
            names:
            - Al Hoceima
            population: 396000
        -   gleam_id: 819
            iana: OUD
            key: oujda
            kind: city
            lat: 34.787
            lon: -1.924
            names:
            - Oujda
        -   gleam_id: 820
            iana: RBA
            key: rabat
            kind: city
            lat: 34.051
            lon: -6.752
            names:
            - Rabat
            population: 1705000
        -   gleam_id: 821
            iana: NDR
            key: nador
            kind: city
            lat: 34.989
            lon: -3.028
            names:
            - Nador
            population: 129000
        -   gleam_id: 822
            iana: GLN
            key: guelmime
            kind: city
            names:
            - Guelmime
        -   gleam_id: 823
            iana: TNG
            key: tangier
            kind: city
            lat: 35.727
            lon: -5.917
            names:
            - Tangier
            population: 750000
        -   gleam_id: 824
            iana: RAK
            key: marrakech
            kind: city
            lat: 31.607
            lon: -8.036
            names:
            - Marrakech
            population: 872000
        -   gleam_id: 825
            iana: VIL
            key: dakhla
            kind: city
            lat: 23.718
            lon: -15.932
            names:
            - Dakhla
            population: 75000
        -   gleam_id: 826
            iana: FEZ
            key: fes
            kind: city
            lat: 33.927
            lon: -4.978
            names:
            - Fes
            population: 1002000
    -   gleam_id: 210
        iso_alpha_3: TUN
        key: tunisia
        kind: country
        names:
        - Tunisia
        population: 11403000
        subregions:
        -   gleam_id: 1790
            iana: TUN
            key: tunis
            kind: city
            lat: 36.851
            lon: 10.227
            names:
            - Tunis
            population: 2413000
        -   gleam_id: 1791
            iana: DJE
            key: djerba
            kind: city
            lat: 33.875
            lon: 10.776
            names:
            - Djerba
        -   gleam_id: 1792
            iana: NBE
            key: enfidha
            kind: city
            lat: 36.076
            lon: 10.439
            names:
            - Enfidha
        -   gleam_id: 1793
            iana: SFA
            key: sfax
            kind: city
            lat: 34.718
            lon: 10.691
            names:
            - Sfax
            population: 453000
        -   gleam_id: 1794
            iana: TOE
            key: tozeur
            kind: city
            lat: 33.94
            lon: 8.111
            names:
            - Tozeur
            population: 40000
        -   gleam_id: 1795
            iana: GAE
            key: gabes
            kind: city
            lat: 33.877
            lon: 10.103
            names:
            - Gabes
            population: 220000
    -   gleam_id: 181
        iso_alpha_3: SDN
        key: sudan
        kind: country
        names:
        - Sudan
        population: 39579000
        subregions:
        -   gleam_id: 3010
            iana: UYL
            key: nyala
            kind: city
            lat: 12.054
            lon: 24.956
            names:
            - Nyala
            population: 392000
        -   gleam_id: 3011
            iana: EBD
            key: el obeid
            kind: city
            lat: 13.153
            lon: 30.233
            names:
            - El Obeid
            population: 393000
        -   gleam_id: 3012
            iana: ADV
            key: addeain
            kind: city
            names:
            - Addeain
        -   gleam_id: 3013
            iana: ZLX
            key: zalengei
            kind: city
            names:
            - Zalengei
        -   gleam_id: 3014
            iana: ELF
            key: el fasher
            kind: city
            lat: 13.615
            lon: 25.325
            names:
            - El Fasher
            population: 253000
        -   gleam_id: 3015
            iana: KSL
            key: kassala
            kind: city
            lat: 15.387
            lon: 36.329
            names:
            - Kassala
            population: 401000
        -   gleam_id: 3016
            iana: PZU
            key: port sudan
            kind: city
            lat: 19.434
            lon: 37.234
            names:
            - Port Sudan
            population: 490000
        -   gleam_id: 3017
            iana: KRT
            key: khartoum
            kind: city
            lat: 15.59
            lon: 32.553
            names:
            - Khartoum
            population: 4754000
        -   gleam_id: 3018
            iana: DOG
            key: dongola
            kind: city
            lat: 19.154
            lon: 30.43
            names:
            - Dongola
            population: 26000
        -   gleam_id: 3019
            iana: EGN
            key: geneina
            kind: city
            lat: 13.482
            lon: 22.467
            names:
            - Geneina
            population: 163000
    -   gleam_id: 152
        iso_alpha_3: NER
        key: niger
        kind: country
        names:
        - Niger
        population: 20673000
        subregions:
        -   gleam_id: 70
            iana: NIM
            key: niamey
            kind: city
            lat: 13.482
            lon: 2.184
            names:
            - Niamey
            population: 915000
        -   gleam_id: 71
            iana: AJY
            key: agadez
            kind: city
            lat: 16.966
            lon: 8.0
            names:
            - Agadez
            population: 118000
        -   gleam_id: 72
            iana: ZND
            key: zinder
            kind: city
            lat: 13.779
            lon: 8.984
            names:
            - Zinder
            population: 230000
    -   gleam_id: 78
        iso_alpha_3: GHA
        key: ghana
        kind: country
        names:
        - Ghana
        population: 28207000
        subregions:
        -   gleam_id: 99
            iana: NYI
            key: sunyani
            kind: city
            lat: 7.362
            lon: -2.329
            names:
            - Sunyani
            population: 70000
        -   gleam_id: 100
            iana: TKD
            key: takoradi
            kind: city
            lat: 4.896
            lon: -1.775
            names:
            - Takoradi
            population: 233000
        -   gleam_id: 101
            iana: KMS
            key: kumasi
            kind: city
            lat: 6.715
            lon: -1.591
            names:
            - Kumasi
            population: 1646000
        -   gleam_id: 102
            iana: TML
            key: tamale
            kind: city
            lat: 9.557
            lon: -0.863
            names:
            - Tamale
            population: 361000
        -   gleam_id: 103
            iana: ACC
            key: accra
            kind: city
            lat: 5.605
            lon: -0.167
            names:
            - Accra
            population: 2121000
    -   gleam_id: 47
        iso_alpha_3: CPV
        key: cape verde
        kind: country
        population: 546388
        names:
        - Cape Verde
        - cabo verde
        subregions:
        -   gleam_id: 133
            iana: VXE
            key: sao vicente island
            kind: city
            lat: 16.833
            lon: -25.055
            names:
            - Sao Vicente Island
        -   gleam_id: 134
            iana: SFL
            key: sao filipe
            kind: city
            lat: 14.885
            lon: -24.48
            names:
            - Sao Filipe
        -   gleam_id: 135
            iana: SID
            key: sal island
            kind: city
            lat: 16.741
            lon: -22.949
            names:
            - Sal Island
        -   gleam_id: 136
            iana: SNE
            key: sao nicolau island
            kind: city
            lat: 16.588
            lon: -24.285
            names:
            - Sao Nicolau Island
        -   gleam_id: 137
            iana: RAI
            key: praia
            kind: city
            lat: 14.925
            lon: -23.493
            names:
            - Praia
            population: 113000
        -   gleam_id: 138
            iana: BVC
            key: boa vista island
            kind: city
            lat: 16.136
            lon: -22.889
            names:
            - Boa Vista Island
    -   gleam_id: 120
        iso_alpha_3: LBR
        key: liberia
        kind: country
        names:
        - Liberia
        population: 4614000
        subregions:
        -   gleam_id: 153
            iana: ROB
            key: monrovia
            kind: city
            lat: 6.234
            lon: -10.362
            names:
            - Monrovia
            population: 1040999
    -   gleam_id: 18
        iso_alpha_3: BFA
        key: burkina faso
        kind: country
        names:
        - Burkina Faso
        population: 18646000
        subregions:
        -   gleam_id: 273
            iana: BOY
            key: bobo dioulasso
            kind: city
            lat: 11.16
            lon: -4.331
            names:
            - Bobo Dioulasso
            population: 360000
        -   gleam_id: 274
            iana: OUA
            key: ouagadougou
            kind: city
            lat: 12.353
            lon: -1.512
            names:
            - Ouagadougou
            population: 1149000
    -   gleam_id: 143
        iso_alpha_3: MRT
        key: mauritania
        kind: country
        names:
        - Mauritania
        population: 4301000
        subregions:
        -   gleam_id: 280
            iana: OUZ
            key: zouerate
            kind: city
            lat: 22.756
            lon: -12.484
            names:
            - Zouerate
            population: 56000
        -   gleam_id: 281
            iana: EMN
            key: nema
            kind: city
            lat: 16.622
            lon: -7.317
            names:
            - Nema
            population: 200000
        -   gleam_id: 282
            iana: NDB
            key: nouadhibou
            kind: city
            lat: 20.933
            lon: -17.03
            names:
            - Nouadhibou
            population: 87000
        -   gleam_id: 283
            iana: NKC
            key: nouakchott
            kind: city
            lat: 18.31
            lon: -15.97
            names:
            - Nouakchott
            population: 742000
    -   gleam_id: 186
        iso_alpha_3: SLE
        key: sierra leone
        kind: country
        names:
        - Sierra Leone
        population: 7396000
        subregions:
        -   gleam_id: 490
            iana: FNA
            key: freetown
            kind: city
            lat: 8.616
            lon: -13.195
            names:
            - Freetown
            population: 827000
    -   gleam_id: 80
        iso_alpha_3: GIN
        key: guinea
        kind: country
        names:
        - Guinea
        population: 12396000
        subregions:
        -   gleam_id: 495
            iana: CKY
            key: conakry
            kind: city
            lat: 9.577
            lon: -13.612
            names:
            - Conakry
            population: 1494000
    -   gleam_id: 16
        iso_alpha_3: BEN
        key: benin
        kind: country
        names:
        - Benin
        population: 10872000
        subregions:
        -   gleam_id: 717
            iana: COO
            key: cotonou
            kind: city
            lat: 6.357
            lon: 2.384
            names:
            - Cotonou
            population: 762000
    -   gleam_id: 203
        iso_alpha_3: TGO
        key: togo
        kind: country
        names:
        - Togo
        population: 7606000
        subregions:
        -   gleam_id: 723
            iana: LFW
            key: lome
            kind: city
            lat: 6.166
            lon: 1.255
            names:
            - Lome
            population: 1452000
    -   gleam_id: 154
        iso_alpha_3: NGA
        key: nigeria
        kind: country
        names:
        - Nigeria
        population: 185990000
        subregions:
        -   gleam_id: 1408
            iana: QOW
            key: owerri
            kind: city
            lat: 5.427
            lon: 7.206
            names:
            - Owerri
            population: 215000
        -   gleam_id: 1409
            iana: LOS
            key: lagos
            kind: city
            lat: 6.577
            lon: 3.321
            names:
            - Lagos
            population: 9466000
        -   gleam_id: 1410
            iana: QRW
            key: warri
            kind: city
            lat: 5.596
            lon: 5.818
            names:
            - Warri
            population: 830000
        -   gleam_id: 1411
            iana: GMO
            key: gombe
            kind: city
            lat: 10.298
            lon: 10.896
            names:
            - Gombe
            population: 270000
        -   gleam_id: 1412
            iana: KAD
            key: kaduna
            kind: city
            lat: 10.696
            lon: 7.32
            names:
            - Kaduna
            population: 1442000
        -   gleam_id: 1413
            iana: KAN
            key: kano
            kind: city
            lat: 12.048
            lon: 8.525
            names:
            - Kano
            population: 3140000
        -   gleam_id: 1414
            iana: ENU
            key: enugu
            kind: city
            lat: 6.474
            lon: 7.562
            names:
            - Enugu
            population: 689000
        -   gleam_id: 1415
            iana: BNI
            key: benin city
            kind: city
            lat: 6.317
            lon: 5.6
            names:
            - Benin City
            population: 1190000
        -   gleam_id: 1416
            iana: ILR
            key: ilorin
            kind: city
            lat: 8.44
            lon: 4.494
            names:
            - Ilorin
            population: 771000
        -   gleam_id: 1417
            iana: IBA
            key: ibadan
            kind: city
            lat: 7.362
            lon: 3.978
            names:
            - Ibadan
            population: 2628000
        -   gleam_id: 1418
            iana: DKA
            key: katsina
            kind: city
            names:
            - Katsina
            population: 432000
        -   gleam_id: 1419
            iana: MIU
            key: maiduguri
            kind: city
            lat: 11.855
            lon: 13.081
            names:
            - Maiduguri
            population: 896000
        -   gleam_id: 1420
            iana: JOS
            key: jos
            kind: city
            lat: 9.64
            lon: 8.869
            names:
            - Jos
            population: 817000
        -   gleam_id: 1421
            iana: PHC
            key: port harcourt
            kind: city
            lat: 5.015
            lon: 6.95
            names:
            - Port Harcourt
            population: 1020000
        -   gleam_id: 1422
            iana: SKO
            key: sokoto
            kind: city
            lat: 12.916
            lon: 5.207
            names:
            - Sokoto
            population: 732000
        -   gleam_id: 1423
            iana: YOL
            key: yola
            kind: city
            lat: 9.258
            lon: 12.43
            names:
            - Yola
            population: 96000
        -   gleam_id: 1424
            iana: CBQ
            key: calabar
            kind: city
            lat: 4.976
            lon: 8.347
            names:
            - Calabar
            population: 462000
        -   gleam_id: 1425
            iana: ABB
            key: asaba
            kind: city
            lat: 6.204
            lon: 6.665
            names:
            - Asaba
            population: 73000
        -   gleam_id: 1426
            iana: ABV
            key: abuja
            kind: city
            lat: 9.007
            lon: 7.263
            names:
            - Abuja
            population: 1576000
    -   gleam_id: 182
        iso_alpha_3: SEN
        key: senegal
        kind: country
        names:
        - Senegal
        population: 15412000
        subregions:
        -   gleam_id: 1474
            iana: ZIG
            key: ziguinchor
            kind: city
            lat: 12.556
            lon: -16.282
            names:
            - Ziguinchor
            population: 192000
        -   gleam_id: 1475
            iana: DKR
            key: dakar
            kind: city
            lat: 14.74
            lon: -17.49
            names:
            - Dakar
            population: 2604000
        -   gleam_id: 1476
            iana: CSK
            key: cap skiring
            kind: city
            lat: 12.395
            lon: -16.748
            names:
            - Cap Skiring
    -   gleam_id: 82
        iso_alpha_3: GMB
        key: gambia
        kind: country
        names:
        - Gambia
        - gambia, the
        - The Gambia
        population: 2101000
        subregions:
        -   gleam_id: 1554
            iana: BJL
            key: banjul
            kind: city
            lat: 13.338
            lon: -16.652
            names:
            - Banjul
            population: 43000
    -   gleam_id: 40
        iso_alpha_3: CIV
        key: cote d'ivoire
        kind: country
        names:
        - Côte d'Ivoire
        population: 23696000
        subregions:
        -   gleam_id: 2049
            iana: OFI
            key: ouango fitini
            kind: city
            names:
            - Ouango-Fitini
        -   gleam_id: 2050
            iana: ABJ
            key: abidjan
            kind: city
            lat: 5.261
            lon: -3.926
            names:
            - Abidjan
            population: 3802000
    -   gleam_id: 83
        iso_alpha_3: GNB
        key: guinea bissau
        kind: country
        names:
        - Guinea-Bissau
        population: 1861000
        subregions:
        -   gleam_id: 2579
            iana: OXB
            key: bissau
            kind: city
            lat: 11.895
            lon: -15.654
            names:
            - Bissau
            population: 403000
    -   gleam_id: 136
        iso_alpha_3: MLI
        key: mali
        kind: country
        names:
        - Mali
        population: 17995000
        subregions:
        -   gleam_id: 2919
            iana: BKO
            key: bamako
            kind: city
            lat: 12.534
            lon: -7.95
            names:
            - Bamako
            population: 1494000
    -   gleam_id: 150
        iso_alpha_3: NAM
        key: namibia
        kind: country
        names:
        - Namibia
        population: 2480000
        subregions:
        -   gleam_id: 74
            iana: OND
            key: ondangwa
            kind: city
            lat: -17.878
            lon: 15.953
            names:
            - Ondangwa
        -   gleam_id: 75
            iana: MPA
            key: katima mulilo
            kind: city
            lat: -17.634
            lon: 24.177
            names:
            - Katima Mulilo
            population: 25000
        -   gleam_id: 76
            iana: WDH
            key: windhoek
            kind: city
            lat: -22.48
            lon: 17.471
            names:
            - Windhoek
            population: 268000
        -   gleam_id: 77
            iana: WVB
            key: walvis bay
            kind: city
            lat: -22.98
            lon: 14.645
            names:
            - Walvis Bay
            population: 52000
        -   gleam_id: 78
            iana: NDU
            key: rundu
            kind: city
            lat: -17.956
            lon: 19.719
            names:
            - Rundu
            population: 58000
        -   gleam_id: 79
            iana: LUD
            key: luderitz
            kind: city
            lat: -26.687
            lon: 15.243
            names:
            - Luderitz
            population: 15000
        -   gleam_id: 80
            iana: OMD
            key: oranjemund
            kind: city
            lat: -28.585
            lon: 16.447
            names:
            - Oranjemund
            population: 8000
    -   gleam_id: 33
        iso_alpha_3: BWA
        key: botswana
        kind: country
        names:
        - Botswana
        population: 2250000
        subregions:
        -   gleam_id: 217
            iana: MUB
            key: maun
            kind: city
            lat: -19.973
            lon: 23.431
            names:
            - Maun
            population: 50000
        -   gleam_id: 218
            iana: BBK
            key: kasane
            kind: city
            lat: -17.833
            lon: 25.162
            names:
            - Kasane
            population: 9000
        -   gleam_id: 219
            iana: GBE
            key: gaborone
            kind: city
            lat: -24.555
            lon: 25.918
            names:
            - Gaborone
            population: 208000
        -   gleam_id: 220
            iana: FRW
            key: francistown
            kind: city
            lat: -21.16
            lon: 27.475
            names:
            - Francistown
            population: 90000
    -   gleam_id: 229
        iso_alpha_3: ZAF
        key: south africa
        kind: country
        names:
        - South Africa
        population: 55909000
        subregions:
        -   gleam_id: 625
            iana: GRJ
            key: george
            kind: city
            lat: -34.006
            lon: 22.379
            names:
            - George
            population: 175000
        -   gleam_id: 626
            iana: JNB
            key: johannesburg
            kind: city
            lat: -26.139
            lon: 28.246
            names:
            - Johannesburg
            population: 3435000
        -   gleam_id: 627
            iana: RCB
            key: richards bay
            kind: city
            lat: -28.741
            lon: 32.092
            names:
            - Richards Bay
            population: 253000
        -   gleam_id: 628
            iana: MQP
            key: nelspruit
            kind: city
            lat: -25.383
            lon: 31.106
            names:
            - Nelspruit
            population: 110000
        -   gleam_id: 629
            iana: PTG
            key: polokwane
            kind: city
            lat: -23.845
            lon: 29.459
            names:
            - Polokwane
            population: 220000
        -   gleam_id: 630
            iana: UTN
            key: upington
            kind: city
            lat: -28.399
            lon: 21.26
            names:
            - Upington
            population: 71000
        -   gleam_id: 631
            iana: UTT
            key: umtata
            kind: city
            lat: -31.546
            lon: 28.673
            names:
            - Umtata
            population: 138000
        -   gleam_id: 632
            iana: ELS
            key: east london
            kind: city
            lat: -33.036
            lon: 27.826
            names:
            - East London
            population: 339000
        -   gleam_id: 633
            iana: HDS
            key: hoedspruit
            kind: city
            lat: -24.369
            lon: 31.049
            names:
            - Hoedspruit
        -   gleam_id: 634
            iana: PZB
            key: pietermaritzburg
            kind: city
            lat: -29.649
            lon: 30.399
            names:
            - Pietermaritzburg
            population: 751000
        -   gleam_id: 635
            iana: CPT
            key: cape town
            kind: city
            lat: -33.965
            lon: 18.602
            names:
            - Cape Town
            population: 3215000
        -   gleam_id: 636
            iana: NTY
            key: sun city
            kind: city
            lat: -25.334
            lon: 27.173
            names:
            - Sun City
            population: 39000
        -   gleam_id: 637
            iana: BFN
            key: bloemfontein
            kind: city
            lat: -29.093
            lon: 26.302
            names:
            - Bloemfontein
            population: 463000
        -   gleam_id: 638
            iana: PHW
            key: phalaborwa
            kind: city
            lat: -23.937
            lon: 31.155
            names:
            - Phalaborwa
            population: 109000
        -   gleam_id: 639
            iana: DUR
            key: durban
            kind: city
            lat: -29.614
            lon: 31.12
            names:
            - Durban
            population: 2729000
        -   gleam_id: 640
            iana: KIM
            key: kimberley
            kind: city
            lat: -28.803
            lon: 24.765
            names:
            - Kimberley
            population: 165000
        -   gleam_id: 641
            iana: PLZ
            key: port elizabeth
            kind: city
            lat: -33.985
            lon: 25.617
            names:
            - Port Elizabeth
            population: 1020999
        -   gleam_id: 642
            iana: ULD
            key: ulundi
            kind: city
            lat: -28.321
            lon: 31.417
            names:
            - Ulundi
            population: 21000
    -   gleam_id: 124
        iso_alpha_3: LSO
        key: lesotho
        kind: country
        names:
        - Lesotho
        population: 2204000
        subregions:
        -   gleam_id: 829
            iana: MSU
            key: maseru
            kind: city
            lat: -29.462
            lon: 27.552
            names:
            - Maseru
            population: 361000
    -   gleam_id: 197
        iso_alpha_3: SWZ
        key: swaziland
        kind: country
        names:
        - Swaziland
        population: 1343000
        subregions:
        -   gleam_id: 2580
            iana: MTS
            key: manzini
            kind: city
            lat: -26.529
            lon: 31.308
            names:
            - Manzini
            population: 111000
    -   gleam_id: 149
        iso_alpha_3: MYT
        key: mayotte
        kind: country
        names:
        - Mayotte
        subregions:
        -   gleam_id: 199
            iana: DZA
            key: dzaoudzi
            kind: city
            lat: -12.805
            lon: 45.281
            names:
            - Dzaoudzi
            population: 15000
    -   gleam_id: 214
        iso_alpha_3: TZA
        key: tanzania
        kind: country
        names:
        - Tanzania
        population: 55572000
        subregions:
        -   gleam_id: 201
            iana: TKQ
            key: kigoma
            kind: city
            lat: -4.886
            lon: 29.671
            names:
            - Kigoma
            population: 164000
        -   gleam_id: 202
            iana: SUT
            key: sumbawanga
            kind: city
            names:
            - Sumbawanga
            population: 89000
        -   gleam_id: 203
            iana: TGT
            key: tanga
            kind: city
            lat: -5.092
            lon: 39.071
            names:
            - Tanga
            population: 225000
        -   gleam_id: 204
            iana: SEU
            key: seronera
            kind: city
            lat: -2.458
            lon: 34.822
            names:
            - Seronera
        -   gleam_id: 205
            iana: JRO
            key: kilimanjaro
            kind: city
            lat: -3.429
            lon: 37.075
            names:
            - Kilimanjaro
        -   gleam_id: 206
            iana: ZNZ
            key: zanzibar
            kind: city
            lat: -6.222
            lon: 39.225
            names:
            - Zanzibar
            population: 404000
        -   gleam_id: 207
            iana: IRI
            key: iringa
            kind: city
            lat: -7.669
            lon: 35.752
            names:
            - Iringa
            population: 112000
        -   gleam_id: 208
            iana: SGX
            key: songea
            kind: city
            lat: -10.683
            lon: 35.583
            names:
            - Songea
            population: 126000
        -   gleam_id: 209
            iana: TBO
            key: tabora
            kind: city
            lat: -5.076
            lon: 32.833
            names:
            - Tabora
            population: 146000
        -   gleam_id: 210
            iana: MYW
            key: mtwara
            kind: city
            lat: -10.339
            lon: 40.182
            names:
            - Mtwara
            population: 97000
        -   gleam_id: 211
            iana: MWZ
            key: mwanza
            kind: city
            lat: -2.444
            lon: 32.933
            names:
            - Mwanza
            population: 494000
        -   gleam_id: 212
            iana: BKZ
            key: bukoba
            kind: city
            lat: -1.332
            lon: 31.821
            names:
            - Bukoba
            population: 101000
        -   gleam_id: 213
            iana: LKY
            key: lake manyara
            kind: city
            lat: -3.376
            lon: 35.818
            names:
            - Lake Manyara
        -   gleam_id: 214
            iana: MBI
            key: mbeya
            kind: city
            lat: -8.92
            lon: 33.274
            names:
            - Mbeya
            population: 292000
        -   gleam_id: 215
            iana: ARK
            key: arusha
            kind: city
            lat: -3.368
            lon: 36.633
            names:
            - Arusha
            population: 341000
        -   gleam_id: 216
            iana: DAR
            key: dar es salaam
            kind: city
            lat: -6.878
            lon: 39.203
            names:
            - Dar Es Salaam
            population: 2930000
    -   gleam_id: 67
        iso_alpha_3: ETH
        key: ethiopia
        kind: country
        names:
        - Ethiopia
        population: 102403000
        subregions:
        -   gleam_id: 226
            iana: MQX
            key: mekele
            kind: city
            lat: 13.467
            lon: 39.534
            names:
            - Mekele
            population: 96000
        -   gleam_id: 227
            iana: GMB
            key: gambela
            kind: city
            lat: 8.129
            lon: 34.563
            names:
            - Gambela
            population: 42000
        -   gleam_id: 228
            iana: ADD
            key: addis ababa
            kind: city
            lat: 8.978
            lon: 38.799
            names:
            - Addis Ababa
            population: 3100000
        -   gleam_id: 229
            iana: DIR
            key: dire dawa
            kind: city
            lat: 9.625
            lon: 41.854
            names:
            - Dire Dawa
            population: 252000
        -   gleam_id: 230
            iana: JIM
            key: jimma
            kind: city
            lat: 7.666
            lon: 36.817
            names:
            - Jimma
            population: 128000
        -   gleam_id: 231
            iana: JIJ
            key: jijiga
            kind: city
            lat: 9.332
            lon: 42.912
            names:
            - Jijiga
            population: 57000
        -   gleam_id: 232
            iana: HUE
            key: humera
            kind: city
            lat: 14.25
            lon: 36.583
            names:
            - Humera
        -   gleam_id: 233
            iana: SZE
            key: semera
            kind: city
            names:
            - Semera
        -   gleam_id: 234
            iana: SHC
            key: inda selassie
            kind: city
            names:
            - Inda Selassie
        -   gleam_id: 235
            iana: AXU
            key: axum
            kind: city
            lat: 14.147
            lon: 38.773
            names:
            - Axum
            population: 41000
        -   gleam_id: 236
            iana: BJR
            key: bahar dar
            kind: city
            lat: 11.608
            lon: 37.322
            names:
            - Bahar Dar
        -   gleam_id: 237
            iana: AMH
            key: arba minch
            kind: city
            lat: 6.039
            lon: 37.59
            names:
            - Arba Minch
            population: 70000
        -   gleam_id: 238
            iana: GDQ
            key: gonder
            kind: city
            lat: 12.52
            lon: 37.434
            names:
            - Gonder
            population: 156000
        -   gleam_id: 239
            iana: GDE
            key: gode
            kind: city
            lat: 5.935
            lon: 43.579
            names:
            - Gode
            population: 75000
        -   gleam_id: 240
            iana: ABK
            key: kebri dehar
            kind: city
            lat: 6.734
            lon: 44.253
            names:
            - Kebri Dehar
        -   gleam_id: 241
            iana: ASO
            key: asosa
            kind: city
            lat: 10.019
            lon: 34.586
            names:
            - Asosa
            population: 31000
        -   gleam_id: 242
            iana: LLI
            key: lalibela
            kind: city
            lat: 11.975
            lon: 38.98
            names:
            - Lalibela
    -   gleam_id: 57
        iso_alpha_3: DJI
        key: djibouti
        kind: country
        names:
        - Djibouti
        population: 942000
        subregions:
        -   gleam_id: 494
            iana: JIB
            key: djibouti city
            kind: city
            names:
            - Djibouti
    -   gleam_id: 199
        iso_alpha_3: SYC
        key: seychelles
        kind: country
        names:
        - Seychelles
        population: 95000
        subregions:
        -   gleam_id: 552
            iana: SEZ
            key: mahe island
            kind: city
            lat: -4.674
            lon: 55.522
            names:
            - Mahe Island
    -   gleam_id: 14
        iso_alpha_3: BDI
        key: burundi
        kind: country
        names:
        - Burundi
        population: 10524000
        subregions:
        -   gleam_id: 900
            iana: BJM
            key: bujumbura
            kind: city
            lat: -3.324
            lon: 29.319
            names:
            - Bujumbura
            population: 332000
    -   gleam_id: 231
        iso_alpha_3: ZWE
        key: zimbabwe
        kind: country
        names:
        - Zimbabwe
        population: 16149999
        subregions:
        -   gleam_id: 958
            iana: BUQ
            key: bulawayo
            kind: city
            lat: -20.017
            lon: 28.618
            names:
            - Bulawayo
            population: 699000
        -   gleam_id: 959
            iana: VFA
            key: victoria falls
            kind: city
            lat: -18.096
            lon: 25.839
            names:
            - Victoria Falls
            population: 36000
        -   gleam_id: 960
            iana: HRE
            key: harare
            kind: city
            lat: -17.932
            lon: 31.093
            names:
            - Harare
            population: 1572000
    -   gleam_id: 142
        iso_alpha_3: MOZ
        key: mozambique
        kind: country
        names:
        - Mozambique
        population: 28829000
        subregions:
        -   gleam_id: 961
            iana: BEW
            key: beira
            kind: city
            lat: -19.796
            lon: 34.908
            names:
            - Beira
            population: 531000
        -   gleam_id: 962
            iana: FXO
            key: cuamba
            kind: city
            lat: -14.815
            lon: 36.53
            names:
            - Cuamba
            population: 73000
        -   gleam_id: 963
            iana: APL
            key: nampula
            kind: city
            lat: -15.106
            lon: 39.282
            names:
            - Nampula
            population: 389000
        -   gleam_id: 964
            iana: POL
            key: pemba
            kind: city
            lat: -12.992
            lon: 40.524
            names:
            - Pemba
            population: 111000
        -   gleam_id: 965
            iana: MNC
            key: nacala
            kind: city
            lat: -14.488
            lon: 40.712
            names:
            - Nacala
            population: 225000
        -   gleam_id: 966
            iana: MPM
            key: maputo
            kind: city
            lat: -25.921
            lon: 32.573
            names:
            - Maputo
            population: 1446000
        -   gleam_id: 967
            iana: TET
            key: tete
            kind: city
            lat: -16.105
            lon: 33.64
            names:
            - Tete
            population: 129000
        -   gleam_id: 968
            iana: INH
            key: inhambane
            kind: city
            lat: -23.876
            lon: 35.409
            names:
            - Inhambane
            population: 116000
        -   gleam_id: 969
            iana: VPY
            key: chimoio
            kind: city
            lat: -19.151
            lon: 33.429
            names:
            - Chimoio
            population: 257000
        -   gleam_id: 970
            iana: VXC
            key: lichinga
            kind: city
            lat: -13.274
            lon: 35.266
            names:
            - Lichinga
            population: 110000
        -   gleam_id: 971
            iana: MZB
            key: mocimboa da praia
            kind: city
            lat: -11.362
            lon: 40.355
            names:
            - Mocimboa Da Praia
        -   gleam_id: 972
            iana: UEL
            key: quelimane
            kind: city
            lat: -17.855
            lon: 36.869
            names:
            - Quelimane
            population: 189000
        -   gleam_id: 973
            iana: VNX
            key: vilankulos
            kind: city
            lat: -22.018
            lon: 35.313
            names:
            - Vilankulos
    -   gleam_id: 146
        iso_alpha_3: MUS
        key: mauritius
        kind: country
        names:
        - Mauritius
        population: 1263000
        subregions:
        -   gleam_id: 1197
            iana: RRG
            key: rodrigues island
            kind: city
            lat: -19.758
            lon: 63.361
            names:
            - Rodrigues Island
        -   gleam_id: 1196
            iana: MRU
            key: mauritius city
            kind: city
            names:
            - Mauritius
    -   gleam_id: 176
        iso_alpha_3: REU
        key: reunion
        population: 859959
        kind: country
        names:
        - Reunion
        subregions:
        -   gleam_id: 1232
            iana: RUN
            key: st denis
            kind: city
            lat: -20.887
            lon: 55.51
            names:
            - St-denis
    -   gleam_id: 46
        iso_alpha_3: COM
        key: comoros
        kind: country
        names:
        - Comoros
        population: 796000
        subregions:
        -   gleam_id: 1359
            iana: AJN
            key: anjouan
            kind: city
            lat: -12.132
            lon: 44.43
            names:
            - Anjouan
        -   gleam_id: 1360
            iana: HAH
            key: moroni
            kind: city
            lat: -11.534
            lon: 43.272
            names:
            - Moroni
            population: 129000
    -   gleam_id: 131
        iso_alpha_3: MDG
        key: madagascar
        kind: country
        names:
        - Madagascar
        population: 24895000
        subregions:
        -   gleam_id: 1443
            iana: RLR
            key: ranohira
            kind: city
            names:
            - Ranohira
        -   gleam_id: 1444
            iana: MOQ
            key: morondava
            kind: city
            lat: -20.285
            lon: 44.318
            names:
            - Morondava
            population: 37000
        -   gleam_id: 1445
            iana: NOS
            key: nosy be
            kind: city
            lat: -13.312
            lon: 48.315
            names:
            - Nosy-Be
        -   gleam_id: 1446
            iana: DIE
            key: antsiranana
            kind: city
            lat: -12.349
            lon: 49.292
            names:
            - Antsiranana
            population: 83000
        -   gleam_id: 1447
            iana: WMN
            key: maroantsetra
            kind: city
            lat: -15.437
            lon: 49.688
            names:
            - Maroantsetra
            population: 38000
        -   gleam_id: 1448
            iana: SVB
            key: sambava
            kind: city
            lat: -14.279
            lon: 50.175
            names:
            - Sambava
            population: 43000
        -   gleam_id: 1449
            iana: TNR
            key: antananarivo
            kind: city
            lat: -18.797
            lon: 47.479
            names:
            - Antananarivo
            population: 1697000
        -   gleam_id: 1450
            iana: MJN
            key: mahajanga
            kind: city
            lat: -15.667
            lon: 46.351
            names:
            - Mahajanga
            population: 155000
        -   gleam_id: 1451
            iana: BMD
            key: belo tsiribihina
            kind: city
            lat: -19.687
            lon: 44.542
            names:
            - Belo Tsiribihina
        -   gleam_id: 1452
            iana: TLE
            key: toliara
            kind: city
            lat: -23.383
            lon: 43.729
            names:
            - Toliara
            population: 115000
        -   gleam_id: 1453
            iana: ANM
            key: antalaha
            kind: city
            lat: -14.999
            lon: 50.32
            names:
            - Antalaha
            population: 47000
        -   gleam_id: 1454
            iana: TMM
            key: toamasina
            kind: city
            lat: -18.11
            lon: 49.393
            names:
            - Toamasina
            population: 210000
        -   gleam_id: 1455
            iana: WMR
            key: mananara avaratra
            kind: city
            lat: -16.164
            lon: 49.774
            names:
            - Mananara Avaratra
        -   gleam_id: 1456
            iana: FTU
            key: tolanaro
            kind: city
            lat: -25.038
            lon: 46.956
            names:
            - Tolanaro
            population: 17000
        -   gleam_id: 1457
            iana: SMS
            key: ste marie
            kind: city
            lat: -17.094
            lon: 49.816
            names:
            - Ste Marie
        -   gleam_id: 1458
            iana: DVD
            key: andavadoaka
            kind: city
            names:
            - Andavadoaka
    -   gleam_id: 179
        iso_alpha_3: RWA
        key: rwanda
        kind: country
        names:
        - Rwanda
        population: 11918000
        subregions:
        -   gleam_id: 1543
            iana: KGL
            key: kigali
            kind: city
            lat: -1.969
            lon: 30.14
            names:
            - Kigali
            population: 860000
        -   gleam_id: 1544
            iana: KME
            key: cyangugu
            kind: city
            lat: -2.462
            lon: 28.908
            names:
            - Cyangugu
            population: 20000
    -   gleam_id: 230
        iso_alpha_3: ZMB
        key: zambia
        kind: country
        names:
        - Zambia
        population: 16591000
        subregions:
        -   gleam_id: 1545
            iana: NLA
            key: ndola
            kind: city
            lat: -12.998
            lon: 28.665
            names:
            - Ndola
            population: 396000
        -   gleam_id: 1546
            iana: MNR
            key: mongu
            kind: city
            lat: -15.255
            lon: 23.162
            names:
            - Mongu
            population: 53000
        -   gleam_id: 1547
            iana: MNS
            key: mansa
            kind: city
            lat: -11.137
            lon: 28.873
            names:
            - Mansa
            population: 42000
        -   gleam_id: 1548
            iana: KAA
            key: kasama
            kind: city
            lat: -10.217
            lon: 31.133
            names:
            - Kasama
            population: 200000
        -   gleam_id: 1549
            iana: LUN
            key: lusaka
            kind: city
            lat: -15.331
            lon: 28.453
            names:
            - Lusaka
            population: 1328000
        -   gleam_id: 1550
            iana: MFU
            key: mfuwe
            kind: city
            lat: -13.259
            lon: 31.937
            names:
            - Mfuwe
        -   gleam_id: 1551
            iana: LVI
            key: livingstone
            kind: city
            lat: -17.822
            lon: 25.823
            names:
            - Livingstone
            population: 165000
        -   gleam_id: 1552
            iana: SLI
            key: solwezi
            kind: city
            names:
            - Solwezi
            population: 65000
        -   gleam_id: 1553
            iana: CIP
            key: chipata
            kind: city
            lat: -13.558
            lon: 32.587
            names:
            - Chipata
            population: 86000
    -   gleam_id: 110
        iso_alpha_3: KEN
        key: kenya
        kind: country
        names:
        - Kenya
        population: 48462000
        subregions:
        -   gleam_id: 1723
            iana: NYK
            key: nanyuki
            kind: city
            lat: -0.062
            lon: 37.041
            names:
            - Nanyuki
            population: 36000
        -   gleam_id: 1724
            iana: EDL
            key: eldoret
            kind: city
            lat: 0.404
            lon: 35.239
            names:
            - Eldoret
            population: 353000
        -   gleam_id: 1725
            iana: LOK
            key: lodwar
            kind: city
            lat: 3.122
            lon: 35.609
            names:
            - Lodwar
            population: 20000
        -   gleam_id: 1726
            iana: WJR
            key: wajir
            kind: city
            lat: 1.733
            lon: 40.092
            names:
            - Wajir
            population: 46000
        -   gleam_id: 1727
            iana: JJM
            key: meru
            kind: city
            lat: 0.165
            lon: 38.195
            names:
            - Meru
            population: 47000
        -   gleam_id: 1728
            iana: MRE
            key: masai mara
            kind: city
            lat: -1.406
            lon: 35.008
            names:
            - Masai Mara
        -   gleam_id: 1729
            iana: LKG
            key: lokichogio
            kind: city
            lat: 4.204
            lon: 34.348
            names:
            - Lokichogio
        -   gleam_id: 1730
            iana: MYD
            key: malindi
            kind: city
            lat: -3.229
            lon: 40.102
            names:
            - Malindi
            population: 94000
        -   gleam_id: 1731
            iana: UAS
            key: samburu
            kind: city
            lat: 0.531
            lon: 37.534
            names:
            - Samburu
        -   gleam_id: 1732
            iana: LAU
            key: lamu
            kind: city
            lat: -2.252
            lon: 40.913
            names:
            - Lamu
            population: 25000
        -   gleam_id: 1733
            iana: KTL
            key: kitale
            kind: city
            lat: 0.972
            lon: 34.959
            names:
            - Kitale
            population: 150000
        -   gleam_id: 1734
            iana: ASV
            key: amboseli
            kind: city
            lat: -2.645
            lon: 37.253
            names:
            - Amboseli
        -   gleam_id: 1735
            iana: NUU
            key: nakuru
            kind: city
            names:
            - Nakuru
            population: 365000
        -   gleam_id: 1736
            iana: KIS
            key: kisumu
            kind: city
            lat: -0.086
            lon: 34.729
            names:
            - Kisumu
            population: 396000
        -   gleam_id: 1737
            iana: MBA
            key: mombasa
            kind: city
            lat: -4.035
            lon: 39.594
            names:
            - Mombasa
            population: 882000
        -   gleam_id: 1738
            iana: NBO
            key: nairobi
            kind: city
            lat: -1.319
            lon: 36.928
            names:
            - Nairobi
            population: 3010000
    -   gleam_id: 191
        iso_alpha_3: SSD
        key: south sudan
        kind: country
        names:
        - South Sudan
        population: 12580000
        subregions:
        -   gleam_id: 2538
            iana: JUB
            key: juba
            kind: city
            lat: 4.872
            lon: 31.601
            names:
            - Juba
            population: 112000
        -   gleam_id: 2539
            iana: RBX
            key: rumbek
            kind: city
            lat: 6.825
            lon: 29.669
            names:
            - Rumbek
            population: 32000
    -   gleam_id: 188
        iso_alpha_3: SOM
        key: somalia
        kind: country
        names:
        - Somalia
        population: 14318000
        subregions:
        -   gleam_id: 2829
            iana: BBO
            key: berbera
            kind: city
            lat: 10.389
            lon: 44.941
            names:
            - Berbera
            population: 242000
        -   gleam_id: 2830
            iana: BSA
            key: bosaso
            kind: city
            lat: 11.275
            lon: 49.149
            names:
            - Bosaso
            population: 74000
        -   gleam_id: 2831
            iana: MGQ
            key: mogadishu
            kind: city
            lat: 2.014
            lon: 45.305
            names:
            - Mogadishu
            population: 1100000
        -   gleam_id: 2832
            iana: GLK
            key: galcaio
            kind: city
            lat: 6.781
            lon: 47.455
            names:
            - Galcaio
        -   gleam_id: 2833
            iana: HGA
            key: hargeisa
            kind: city
            lat: 9.518
            lon: 44.089
            names:
            - Hargeisa
        -   gleam_id: 2834
            iana: BIB
            key: baidoa
            kind: city
            lat: 3.102
            lon: 43.629
            names:
            - Baidoa
            population: 130000
        -   gleam_id: 2835
            iana: KMU
            key: kisimayu
            kind: city
            lat: -0.377
            lon: 42.459
            names:
            - Kisimayu
    -   gleam_id: 64
        iso_alpha_3: ERI
        key: eritrea
        kind: country
        names:
        - Eritrea
        population: 4475000
        subregions:
        -   gleam_id: 2848
            iana: ASM
            key: asmara
            kind: city
            lat: 15.292
            lon: 38.911
            names:
            - Asmara
            population: 621000
        -   gleam_id: 2849
            iana: MSW
            key: massawa
            kind: city
            lat: 15.67
            lon: 39.37
            names:
            - Massawa
            population: 143000
    -   gleam_id: 147
        iso_alpha_3: MWI
        key: malawi
        kind: country
        names:
        - Malawi
        population: 18092000
        subregions:
        -   gleam_id: 2869
            iana: LIX
            key: likoma island
            kind: city
            lat: -12.076
            lon: 34.737
            names:
            - Likoma Island
        -   gleam_id: 2870
            iana: BLZ
            key: blantyre
            kind: city
            lat: -15.679
            lon: 34.974
            names:
            - Blantyre
            population: 585000
        -   gleam_id: 2871
            iana: CEH
            key: chelinda
            kind: city
            names:
            - Chelinda
        -   gleam_id: 2872
            iana: LLW
            key: lilongwe
            kind: city
            lat: -13.789
            lon: 33.781
            names:
            - Lilongwe
            population: 647000
    -   gleam_id: 215
        iso_alpha_3: UGA
        key: uganda
        kind: country
        names:
        - Uganda
        population: 41488000
        subregions:
        -   gleam_id: 3163
            iana: EBB
            key: entebbe
            kind: city
            lat: 0.042
            lon: 32.444
            names:
            - Entebbe
            population: 175000
        -   gleam_id: 3164
            iana: KSE
            key: kasese
            kind: city
            lat: 0.183
            lon: 30.1
            names:
            - Kasese
            population: 67000
        -   gleam_id: 3165
            iana: RUA
            key: arua
            kind: city
            lat: 3.05
            lon: 30.917
            names:
            - Arua
            population: 250000
        -   gleam_id: 3166
            iana: PAF
            key: pakuba
            kind: city
            names:
            - Pakuba
-   gleam_id: 1
    key: asia
    kind: continent
    names:
    - Asia
    population: 4560667000
    subregions:
    -   gleam_id: 19
        iso_alpha_3: BGD
        key: bangladesh
        kind: country
        max_percentage_of_infected_to_fill_icu_beds: 0.065371
        names:
        - Bangladesh
        population: 162952000
        subregions:
        -   gleam_id: 61
            iana: SPD
            key: saidpur
            kind: city
            lat: 25.759
            lon: 88.909
            names:
            - Saidpur
            population: 232000
        -   gleam_id: 62
            iana: ZYL
            key: sylhet
            kind: city
            lat: 24.963
            lon: 91.867
            names:
            - Sylhet
            population: 237000
        -   gleam_id: 63
            iana: RJH
            key: rajshahi
            kind: city
            lat: 24.437
            lon: 88.617
            names:
            - Rajshahi
            population: 810000
        -   gleam_id: 64
            iana: CXB
            key: cox's bazar
            kind: city
            lat: 21.452
            lon: 91.964
            names:
            - Cox's Bazar
            population: 254000
        -   gleam_id: 65
            iana: IRD
            key: ishurdi
            kind: city
            lat: 24.153
            lon: 89.049
            names:
            - Ishurdi
            population: 82000
        -   gleam_id: 66
            iana: BZL
            key: barisal
            kind: city
            lat: 22.801
            lon: 90.301
            names:
            - Barisal
            population: 202000
        -   gleam_id: 67
            iana: JSR
            key: jessore
            kind: city
            lat: 23.184
            lon: 89.161
            names:
            - Jessore
            population: 244000
        -   gleam_id: 68
            iana: CGP
            key: chittagong
            kind: city
            lat: 22.25
            lon: 91.813
            names:
            - Chittagong
            population: 4529000
        -   gleam_id: 69
            iana: DAC
            key: dhaka
            kind: city
            lat: 23.843
            lon: 90.398
            names:
            - Dhaka
            population: 12797000
    -   gleam_id: 163
        iso_alpha_3: PAK
        key: pakistan
        kind: country
        max_percentage_of_infected_to_fill_icu_beds: 0.177237
        names:
        - Pakistan
        population: 193203000
        subregions:
        -   gleam_id: 105
            iana: KHI
            key: karachi
            kind: city
            lat: 24.907
            lon: 67.161
            names:
            - Karachi
            population: 12130000
        -   gleam_id: 106
            iana: GIL
            key: gilgit
            kind: city
            lat: 35.919
            lon: 74.334
            names:
            - Gilgit
            population: 217000
        -   gleam_id: 107
            iana: DBA
            key: dalbandin
            kind: city
            lat: 28.878
            lon: 64.4
            names:
            - Dalbandin
        -   gleam_id: 108
            iana: ISB
            key: islamabad
            kind: city
            lat: 33.561
            lon: 72.852
            names:
            - Islamabad
            population: 780000
        -   gleam_id: 109
            iana: TUK
            key: turbat
            kind: city
            lat: 25.986
            lon: 63.03
            names:
            - Turbat
            population: 148000
        -   gleam_id: 110
            iana: SKZ
            key: sukkur
            kind: city
            lat: 27.722
            lon: 68.792
            names:
            - Sukkur
            population: 418000
        -   gleam_id: 111
            iana: CJL
            key: chitral
            kind: city
            lat: 35.887
            lon: 71.801
            names:
            - Chitral
        -   gleam_id: 112
            iana: SUL
            key: sui
            kind: city
            lat: 28.645
            lon: 69.177
            names:
            - Sui
        -   gleam_id: 113
            iana: PJG
            key: panjgur
            kind: city
            lat: 26.955
            lon: 64.132
            names:
            - Panjgur
        -   gleam_id: 114
            iana: RYK
            key: rahim yar khan
            kind: city
            lat: 28.384
            lon: 70.28
            names:
            - Rahim Yar Khan
            population: 789000
        -   gleam_id: 115
            iana: LHE
            key: lahore
            kind: city
            lat: 31.522
            lon: 74.404
            names:
            - Lahore
            population: 6577000
        -   gleam_id: 116
            iana: DSK
            key: dera ismail khan
            kind: city
            lat: 31.909
            lon: 70.897
            names:
            - Dera Ismail Khan
            population: 102000
        -   gleam_id: 117
            iana: SDT
            key: saidu sharif
            kind: city
            lat: 34.814
            lon: 72.353
            names:
            - Saidu Sharif
            population: 1860000
        -   gleam_id: 118
            iana: LYP
            key: faisalabad
            kind: city
            lat: 31.365
            lon: 72.995
            names:
            - Faisalabad
            population: 2617000
        -   gleam_id: 119
            iana: PEW
            key: peshawar
            kind: city
            lat: 33.994
            lon: 71.515
            names:
            - Peshawar
            population: 1303000
        -   gleam_id: 120
            iana: KCF
            key: kadanwari
            kind: city
            lat: 27.167
            lon: 69.317
            names:
            - Kadanwari
        -   gleam_id: 121
            iana: UET
            key: quetta
            kind: city
            lat: 30.251
            lon: 66.938
            names:
            - Quetta
            population: 768000
        -   gleam_id: 122
            iana: MJD
            key: mohenjodaro
            kind: city
            lat: 27.335
            lon: 68.143
            names:
            - Mohenjodaro
        -   gleam_id: 123
            iana: HDD
            key: hyderabad (pk)
            kind: city
            lat: 25.318
            lon: 68.366
            names:
            - Hyderabad (PK)
        -   gleam_id: 124
            iana: PZH
            key: zhob
            kind: city
            lat: 31.358
            lon: 69.464
            names:
            - Zhob
            population: 88000
        -   gleam_id: 125
            iana: SKT
            key: sialkot
            kind: city
            lat: 32.536
            lon: 74.364
            names:
            - Sialkot
            population: 477000
        -   gleam_id: 126
            iana: DDU
            key: dadu
            kind: city
            names:
            - Dadu
            population: 140000
        -   gleam_id: 127
            iana: GWD
            key: gwadar
            kind: city
            lat: 25.233
            lon: 62.329
            names:
            - Gwadar
            population: 52000
        -   gleam_id: 128
            iana: KDU
            key: skardu
            kind: city
            lat: 35.335
            lon: 75.536
            names:
            - Skardu
        -   gleam_id: 129
            iana: DEA
            key: dera ghazi khan
            kind: city
            lat: 29.961
            lon: 70.486
            names:
            - Dera Ghazi Khan
            population: 236000
        -   gleam_id: 130
            iana: BHV
            key: bahawalpur
            kind: city
            lat: 29.348
            lon: 71.718
            names:
            - Bahawalpur
            population: 553000
        -   gleam_id: 131
            iana: MUX
            key: multan
            kind: city
            lat: 30.203
            lon: 71.419
            names:
            - Multan
            population: 1522000
        -   gleam_id: 132
            iana: WNS
            key: nawabshah
            kind: city
            lat: 26.219
            lon: 68.39
            names:
            - Nawabshah
            population: 230000
    -   gleam_id: 159
        iso_alpha_3: NPL
        key: nepal
        kind: country
        max_percentage_of_infected_to_fill_icu_beds: 0.266742
        names:
        - Nepal
        population: 28983000
        subregions:
        -   gleam_id: 553
            iana: BWA
            key: bhairawa
            kind: city
            lat: 27.506
            lon: 83.416
            names:
            - Bhairawa
        -   gleam_id: 554
            iana: JMO
            key: jomsom
            kind: city
            lat: 28.78
            lon: 83.723
            names:
            - Jomsom
        -   gleam_id: 555
            iana: DOP
            key: dolpa
            kind: city
            lat: 28.986
            lon: 82.819
            names:
            - Dolpa
        -   gleam_id: 556
            iana: JKR
            key: janakpur
            kind: city
            lat: 26.709
            lon: 85.922
            names:
            - Janakpur
            population: 94000
        -   gleam_id: 557
            iana: IMK
            key: simikot
            kind: city
            lat: 29.971
            lon: 81.819
            names:
            - Simikot
        -   gleam_id: 558
            iana: DHI
            key: dhangarhi
            kind: city
            lat: 28.753
            lon: 80.582
            names:
            - Dhangarhi
            population: 92000
        -   gleam_id: 559
            iana: SIF
            key: simara
            kind: city
            lat: 27.16
            lon: 84.98
            names:
            - Simara
        -   gleam_id: 560
            iana: LUA
            key: lukla
            kind: city
            lat: 27.687
            lon: 86.73
            names:
            - Lukla
        -   gleam_id: 561
            iana: KEP
            key: nepalganj
            kind: city
            lat: 28.104
            lon: 81.667
            names:
            - Nepalganj
            population: 64000
        -   gleam_id: 562
            iana: SKH
            key: surkhet
            kind: city
            lat: 28.586
            lon: 81.636
            names:
            - Surkhet
        -   gleam_id: 563
            iana: JUM
            key: jumla
            kind: city
            lat: 29.274
            lon: 82.193
            names:
            - Jumla
            population: 9000
        -   gleam_id: 564
            iana: TMI
            key: tumlingtar
            kind: city
            lat: 27.315
            lon: 87.193
            names:
            - Tumlingtar
        -   gleam_id: 565
            iana: BHR
            key: bharatpur
            kind: city
            lat: 27.678
            lon: 84.429
            names:
            - Bharatpur
            population: 229000
        -   gleam_id: 566
            iana: KTM
            key: kathmandu
            kind: city
            lat: 27.697
            lon: 85.359
            names:
            - Kathmandu
            population: 895000
        -   gleam_id: 567
            iana: BIR
            key: biratnagar
            kind: city
            lat: 26.482
            lon: 87.264
            names:
            - Biratnagar
            population: 182000
        -   gleam_id: 568
            iana: BDP
            key: bhadrapur
            kind: city
            lat: 26.571
            lon: 88.08
            names:
            - Bhadrapur
            population: 20000
        -   gleam_id: 569
            iana: PKR
            key: pokhara
            kind: city
            lat: 28.201
            lon: 83.982
            names:
            - Pokhara
            population: 200000
    -   gleam_id: 123
        iso_alpha_3: LKA
        key: sri lanka
        kind: country
        max_percentage_of_infected_to_fill_icu_beds: 0.119709
        names:
        - Sri Lanka
        population: 21203000
        subregions:
        -   gleam_id: 754
            iana: BTC
            key: batticaloa
            kind: city
            lat: 7.706
            lon: 81.679
            names:
            - Batticaloa
            population: 129000
        -   gleam_id: 755
            iana: DIW
            key: dickwella
            kind: city
            names:
            - Dickwella
        -   gleam_id: 756
            iana: KDZ
            key: kandy
            kind: city
            names:
            - Kandy
            population: 112000
        -   gleam_id: 757
            iana: THW
            key: trincomalee
            kind: city
            names:
            - Trincomalee
            population: 108000
        -   gleam_id: 758
            iana: CMB
            key: colombo
            kind: city
            lat: 7.181
            lon: 79.884
            names:
            - Colombo
            population: 217000
    -   gleam_id: 1
        iso_alpha_3: AFG
        key: afghanistan
        kind: country
        names:
        - Afghanistan
        population: 34656000
        subregions:
        -   gleam_id: 887
            iana: CCN
            key: chaghcharan
            kind: city
            lat: 34.533
            lon: 65.267
            names:
            - Chaghcharan
        -   gleam_id: 888
            iana: MMZ
            key: maimanah
            kind: city
            lat: 35.931
            lon: 64.761
            names:
            - Maimanah
            population: 200000
        -   gleam_id: 889
            iana: ZAJ
            key: zaranj
            kind: city
            lat: 30.972
            lon: 61.866
            names:
            - Zaranj
            population: 50000
        -   gleam_id: 890
            iana: FBD
            key: faizabad
            kind: city
            lat: 37.121
            lon: 70.518
            names:
            - Faizabad
            population: 65000
        -   gleam_id: 891
            iana: MZR
            key: mazar e sharif
            kind: city
            lat: 36.707
            lon: 67.21
            names:
            - Mazar-e Sharif
            population: 458000
        -   gleam_id: 892
            iana: KDH
            key: kandahar
            kind: city
            lat: 31.506
            lon: 65.848
            names:
            - Kandahar
            population: 716000
        -   gleam_id: 893
            iana: HEA
            key: herat
            kind: city
            lat: 34.21
            lon: 62.228
            names:
            - Herat
            population: 481000
        -   gleam_id: 894
            iana: FAH
            key: farah
            kind: city
            lat: 32.367
            lon: 62.183
            names:
            - Farah
            population: 74000
        -   gleam_id: 895
            iana: OAZ
            key: camp bastion
            kind: city
            lat: 31.864
            lon: 64.225
            names:
            - Camp Bastion
        -   gleam_id: 896
            iana: UND
            key: kunduz
            kind: city
            lat: 36.665
            lon: 68.911
            names:
            - Kunduz
            population: 260000
        -   gleam_id: 897
            iana: BIN
            key: bamyan
            kind: city
            lat: 34.817
            lon: 67.817
            names:
            - Bamyan
            population: 62000
        -   gleam_id: 898
            iana: KBL
            key: kabul
            kind: city
            lat: 34.566
            lon: 69.212
            names:
            - Kabul
            population: 3277000
        -   gleam_id: 899
            iana: TII
            key: tarin kot
            kind: city
            lat: 32.604
            lon: 65.866
            names:
            - Tarin Kot
            population: 10000
    -   gleam_id: 98
        iso_alpha_3: IND
        key: india
        kind: country
        max_percentage_of_infected_to_fill_icu_beds: 0.190854
        names:
        - India
        population: 1359772000
        subregions:
        -   gleam_id: 1039
            iana: AGX
            key: agatti island
            kind: city
            lat: 10.824
            lon: 72.176
            names:
            - Agatti Island
        -   gleam_id: 1040
            iana: AGR
            key: agra
            kind: city
            lat: 27.156
            lon: 77.961
            names:
            - Agra
            population: 1592000
        -   gleam_id: 1041
            iana: IXJ
            key: jammu
            kind: city
            lat: 32.689
            lon: 74.837
            names:
            - Jammu
            population: 791000
        -   gleam_id: 1042
            iana: IXL
            key: leh
            kind: city
            lat: 34.136
            lon: 77.547
            names:
            - Leh
            population: 37000
        -   gleam_id: 1043
            iana: IXM
            key: madurai
            kind: city
            lat: 9.835
            lon: 78.093
            names:
            - Madurai
            population: 910000
        -   gleam_id: 1044
            iana: IXB
            key: bagdogra
            kind: city
            lat: 26.681
            lon: 88.329
            names:
            - Bagdogra
            population: 17000
        -   gleam_id: 1045
            iana: IXC
            key: chandigarh
            kind: city
            lat: 30.674
            lon: 76.788
            names:
            - Chandigarh
            population: 979000
        -   gleam_id: 1046
            iana: VTZ
            key: vishakhapatnam
            kind: city
            lat: 17.721
            lon: 83.225
            names:
            - Vishakhapatnam
            population: 1529000
        -   gleam_id: 1047
            iana: IXA
            key: agartala
            kind: city
            lat: 23.887
            lon: 91.24
            names:
            - Agartala
            population: 203000
        -   gleam_id: 1048
            iana: IXG
            key: belgaum
            kind: city
            lat: 15.859
            lon: 74.618
            names:
            - Belgaum
            population: 609000
        -   gleam_id: 1049
            iana: IXD
            key: allahabad
            kind: city
            lat: 25.44
            lon: 81.734
            names:
            - Allahabad
            population: 1201000
        -   gleam_id: 1050
            iana: IXE
            key: mangalore
            kind: city
            lat: 12.961
            lon: 74.89
            names:
            - Mangalore
            population: 777000
        -   gleam_id: 1051
            iana: IXS
            key: silchar
            kind: city
            lat: 24.913
            lon: 92.979
            names:
            - Silchar
            population: 152000
        -   gleam_id: 1052
            iana: IXU
            key: aurangabad
            kind: city
            lat: 19.863
            lon: 75.398
            names:
            - Aurangabad
            population: 1113000
        -   gleam_id: 1053
            iana: MAA
            key: chennai
            kind: city
            lat: 12.99
            lon: 80.169
            names:
            - Chennai
            population: 7163000
        -   gleam_id: 1054
            iana: IXZ
            key: port blair
            kind: city
            lat: 11.641
            lon: 92.73
            names:
            - Port Blair
            population: 128000
        -   gleam_id: 1055
            iana: PNQ
            key: pune
            kind: city
            lat: 18.582
            lon: 73.92
            names:
            - Pune
            population: 4672000
        -   gleam_id: 1056
            iana: IXR
            key: ranchi
            kind: city
            lat: 23.314
            lon: 85.322
            names:
            - Ranchi
            population: 1044000
        -   gleam_id: 1057
            iana: JAI
            key: jaipur
            kind: city
            lat: 26.824
            lon: 75.812
            names:
            - Jaipur
            population: 2917000
        -   gleam_id: 1058
            iana: BBI
            key: bhubaneshwar
            kind: city
            lat: 20.244
            lon: 85.818
            names:
            - Bhubaneshwar
            population: 844000
        -   gleam_id: 1059
            iana: PAT
            key: patna
            kind: city
            lat: 25.591
            lon: 85.088
            names:
            - Patna
            population: 2158000
        -   gleam_id: 1060
            iana: DMU
            key: dimapur
            kind: city
            lat: 25.884
            lon: 93.771
            names:
            - Dimapur
            population: 136000
        -   gleam_id: 1061
            iana: JLR
            key: jabalpur
            kind: city
            lat: 23.178
            lon: 80.052
            names:
            - Jabalpur
            population: 1285000
        -   gleam_id: 1062
            iana: RJA
            key: rajahmundry
            kind: city
            lat: 17.11
            lon: 81.818
            names:
            - Rajahmundry
            population: 305000
        -   gleam_id: 1063
            iana: CJB
            key: coimbatore
            kind: city
            lat: 11.03
            lon: 77.043
            names:
            - Coimbatore
            population: 1696000
        -   gleam_id: 1064
